addr,code,latitude,longitude,name,type
"충청남도 홍성군 갈산면 상촌로 12-1,",34840559,36.6029863,126.5489114,신신약국,01
대구광역시 달서구 달구벌대로 1736 1층 (두류동),37844571,35.856678,128.5552778,밝은온누리약국,01
충청남도 보령시 남대천로 58 (대천동),34833323,36.3487417,126.5935343,지애약국,01
경북 고령군 쌍림면 대가야로 608 ,5038300744,35.6791963,128.2422529,고령쌍림우체국,02
부산광역시 금정구 서동로 168 송월빌딩 1층 102호 (서동),21839824,35.2144484,129.1047754,굿모닝약국,01
경상남도 함양군 함양읍 한들로 143,38827077,35.5197038,127.7321179,평화약국,01
충청남도 태안군 태안읍 중앙로 33 (한국통신),34831185,36.755742,126.293988,이화약국,01
서울특별시 강남구 압구정로 108 1층 7호 (신사동),11889446,37.5228904,127.0206138,가로수길약국,01
대구광역시 달성군 화원읍 비슬로 2582,37827219,35.8035575,128.4993463,화원약국,01
서울특별시 중구 동호로 171 (신당동),11836890,37.5534585,127.0112461,다나약국,01
"대구광역시 달성군 유가읍 테크노순환로12길 4 111,112호",37849310,35.6932874,128.4706272,메가약국,01
부산광역시 사하구 다대로 616 (다대동),21831823,35.0516343,128.9704974,팜뱅크한마음약국,01
강원도 삼척시 오십천로 419 (남양동),32809239,37.4408975,129.1643611,삼척종로약국,01
"서울특별시 동대문구 천호대로83길 43-1, 1층 (장안동)",12842729,37.5641695,127.0651724,장안수약국,01
전라북도 임실군 관촌면 사선로 40,35812346,35.6741074,127.2706129,관촌약국,01
대전광역시 서구 관저로 27 102호 (관저동),34843132,36.2967693,127.3261342,365스마일약국,01
서울특별시 금천구 시흥대로 473 (독산동),12830500,37.4759429,126.8980969,명약국,01
대구광역시 수성구 수성로 244 (중동),37801970,35.8472471,128.613155,우성약국,01
서울특별시 서대문구 수색로 56 성공타워1 407호 (북가좌동),12847402,37.5708721,126.9123057,새서울DMC약국,01
대구광역시 수성구 지범로 188 (범물동),37834797,35.8208067,128.6395092,뉴월드약국,01
충남 금산군 금산읍 상리 260-10,3058219768,36.1104599,127.4869379,금산농협하나로마트비호점,03
충청북도 청주시 상당구 청남로 2183 (석교동),33800332,36.6267537,127.489921,삼장약국,01
인천광역시 부평구 경인로1104번길 6 (부개동),31864503,37.4855597,126.7422469,인과원약국,01
대전광역시 유성구 신성로72번길 66 1층 (신성동),34841661,36.3871393,127.3502233,하연약국,01
경기도 고양시 일산서구 중앙로 1564 그린월드 403-1호 (대화동),41845030,37.6762119,126.7482744,다나약국,01
경기도 성남시 수정구 수정북로13번길 2 (태평동),31837000,37.4417341,127.1312167,메디칼왕약국,01
충청남도 보령시 대천로 17 (대천동),34831789,36.3505526,126.5968054,비타민약국,01
울산광역시 남구 문수로 331 1층 (옥동),38810832,35.535473,129.2898058,대웅약국,01
충청북도 청주시 서원구 사직대로265번길 3 (사직동),33802092,36.6359037,127.4769135,참사랑약국,01
충청남도 서산시 지곡면 충의로 1192,34828907,36.8739362,126.4381326,지곡백화점약국,01
서울특별시 강남구 강남대로 476 urbanhive 지하2층 (논현동),12843032,37.5049158,127.0248029,신논현비비약국,01
충청남도 천안시 동남구 만남로 42 1층 (신부동),34820680,36.8186186,127.1568577,동행약국,01
부산광역시 기장군 정관면 정관로 570 209호,21842809,35.321036,129.1758748,큰사랑약국,01
강원도 강릉시 율곡로 2791 (성남동),32816197,37.7540661,128.9009344,믿음약국,01
"경기도 수원시 권선구 금곡로 202 108호 (금곡동, e-SPACECITY-1)",41801717,37.2734821,126.9526872,수약국,01
경기도 안양시 만안구 명학로 34 1층 (안양동),41823711,37.3796731,126.9367128,중앙약국,01
강원도 양구군 양구읍 중심로 157,32816138,38.1044361,127.9907856,양구종합약국,01
대전광역시 서구 한밭대로 745 지하2층 (둔산동),34800581,36.3582076,127.3818691,보리약국,01
전남 진도군 임회면 삼막리238,4158211836,34.426863,126.2321181,서진도농협하나로마트광석점,03
서울특별시 양천구 신월로 341 4층 (신정동),12862916,37.5220063,126.8588763,미그린약국,01
전라북도 전주시 완산구 온고을로 18 (서신동),35814659,35.8341582,127.1210319,전주온누리약국,01
"제주특별자치도 서귀포시 천제연로 210-1, (중문동)",39803601,33.2514704,126.4270424,한마음약국,01
전라북도 김제시 요촌동1길 14 (요촌동),35821256,35.8051198,126.8947853,다스림한약국,01
"경상남도 양산시 삼호로 74 116동 (삼호동, 웅상신도시푸르지오아파트)",38808251,35.4064581,129.1724279,비타약국,01
경상남도 김해시 인제로 163 2층 (어방동),38822857,35.2431376,128.903598,신영약국,01
광주광역시 광산구 사암로 275 1층 (월곡동),36835463,35.1689463,126.8087583,한소망약국,01
"전라북도 정읍시 중앙로 152 (시기동, 트윈클악세사리)",35815809,35.5654592,126.8548042,내장산약국,01
대구광역시 남구 중앙대로29길 27 (대명동),37811461,35.8460022,128.5888139,대학당약국,01
"전라북도 익산시 인북로 290-2, (남중동)",35800771,35.9542542,126.9596974,건강약국,01
경기도 광명시 시청로 30 1층 (철산동),31896359,37.4794236,126.8641142,이화약국,01
경기도 광주시 오포읍 양벌로 208 1층,41831110,37.3784267,127.2538924,사랑약국,01
부산광역시 서구 대영로74번길 36 (동대신동1가),21807426,35.1090271,129.0199042,삼성약국,01
충청남도 보령시 주공로 12 (동대동),34823174,36.3450653,126.6022154,대영약국,01
경기도 평택시 중앙로 298 (합정동),31879853,36.9905073,127.115696,태평양약국,01
부산광역시 서구 까치고개로 200 (아미동1가),21835896,35.0997446,129.017638,반도약국,01
부산광역시 서구 자갈치로 5 (충무동1가),21806951,35.0964619,129.0250182,보광약국,01
인천광역시 남동구 남촌동로25번길 4 101호 (남촌동),31863434,37.4319361,126.7157123,남촌중앙약국,01
"경상남도 창녕군 창녕읍 명덕로 45-1,",38814366,35.5429898,128.4945005,신경남약국,01
경기도 군포시 송부로34번길 35 센트럴프라자 107호 (도마교동),41838581,37.3162665,126.9194501,송정약국,01
전북 익산시 무왕로26길 19 익산군산축협하나로마트동부점,4038205914,35.9591429,126.9984382,익산군산축협하나로마트동부점,03
경상북도 성주군 성주읍 성주로 3207,37817663,35.9188482,128.2850171,백산약국,01
경기도 안양시 만안구 안양로223번길 5 (안양동),31812708,37.392901,126.9257149,나은온누리약국,01
경기도 고양시 덕양구 충경로 87 대명상가 2층 (행신동),41844661,37.6156851,126.839488,새한솔약국,01
제주 제주시 노형11길 25 (노형동) 하나로마트,5898200019,33.482785,126.47772,제주축협하나로마트노형점,03
"경기도 화성시 동탄지성로 134 101호,102호 (능동, 한솔프라자)",31815928,37.209571,127.0609803,새싹약국,01
"경상남도 진주시 대신로475번길 16-1, (초전동)",38816539,35.2024675,128.1143989,푸른약국,01
경상남도 창원시 마산회원구 팔용로 163 (구암동),38814307,35.2435364,128.5911428,삼성약국,01
대구광역시 중구 명륜로 68 1층 (남산동),37827685,35.861358,128.5917596,신세명약국,01
서울특별시 중구 퇴계로46길 17 1층 (묵정동),12820831,37.5616598,126.9999574,신삼성대학약국,01
서울특별시 동대문구 신이문로 41 1층 (이문동),12802875,37.6031802,127.0667024,한사랑온누리약국,01
강원도 강릉시 구정면 범일로 447 2동,32816294,37.7279136,128.8788959,옵티마학산약국,01
대구광역시 달서구 월배로 18 (진천동),37840916,35.8115218,128.5175383,유안약국,01
경상남도 함안군 군북면 중암7길 7 (군북치과의원),38837935,35.2618626,128.3460406,맑은우리들약국,01
경상북도 경주시 외동읍 산업로 1845,37851586,35.6788131,129.3329421,튼튼약국,01
대구광역시 달서구 한실로 89 1층 (도원동),37819097,35.8070431,128.5364356,중앙약국,01
대전광역시 유성구 반석로 100 (반석동) 반석로100,3188200362,36.3902768,127.3038126,탄동농협하나로마트분사,03
전라남도 영광군 영광읍 신남로 268,36811190,35.274618,126.510871,으뜸약국,01
경상북도 안동시 북후면 북평로 870,37837893,36.6843493,128.702509,사랑약국,01
충청북도 충주시 계명대로 22 (칠금동),33817235,36.9821482,127.9168297,바른약국,01
"대전광역시 서구 관저로 176, 101호 (관저동)",34837892,36.2987805,127.3415249,예인당한약국,01
부산광역시 금정구 서동중심로 61 1층 (서동),21808333,35.2144758,129.1028722,동서약국,01
서울특별시 성동구 왕십리로 381 1층 (하왕십리동),12853941,37.5646008,127.0279076,행운약국,01
울산광역시 중구 화합로 360 (반구동),38827701,35.5580999,129.3418993,금성약국,01
전라남도 영광군 백수읍 백수로 989 ,4108301572,35.2819442,126.4183204,백수우체국,02
인천광역시 부평구 경원대로 1242 (산곡동),31851282,37.4876012,126.7088392,현대메디칼약국,01
"경기도 성남시 중원구 광명로 336 1층 (금광동, 신호빌딩)",31884687,37.4454787,127.1631941,수약국,01
대전광역시 유성구 죽동로297번길 76 (죽동),34819371,36.3700982,127.3384435,소망약국,01
경기도 평택시 서탄면 발안로 1226 1226,41828721,,,세명약국,01
인천광역시 계양구 계양대로 214 (계산동),31887767,37.5430595,126.7230321,계산365약국,01
경상북도 경산시 진량읍 공단4로 153-14 ,5158302008,35.8710889,128.8267847,경산진량공단우체국,02
강원도 원주시 행구로 148 (행구동),32814836,37.341715,127.9725155,참조은약국,01
대구광역시 달성군 다사읍 달구벌대로 877,37833537,35.8581034,128.4653478,행운약국,01
대구광역시 달성군 현풍읍 테크노상업로 46 104호,37852175,35.6926174,128.4547492,마음약국,01
경상남도 김해시 가락로 84 (서상동),38807114,35.234071,128.88164,명문약국,01
"강원도 정선군 고한읍 고한로 153-1,",32803443,37.2011964,128.8533232,동시약국,01
"서울특별시 노원구 덕릉로73길 18 102호 (중계동, 태인빌딩)",12837563,37.6521996,127.072332,부용온누리약국,01
충청남도 천안시 서북구 불당대로 260 2층 (쌍용동),34811958,36.7997695,127.1245177,쌍용청솔약국,01
"서울특별시 마포구 월드컵로 240 2층 (성산동, 홈플러스월드컵점)",12820083,37.5682553,126.8972733,상암월드약국,01
강원도 강릉시 금성로42번길 2 (금학동),32801904,37.7531488,128.8963771,이약국,01
경기도 화성시 송산면 사강시장길 72,31825851,37.2137554,126.7376767,감초약국,01
서울특별시 성북구 정릉로 274 1층 (정릉동),12808741,37.603191,127.0137677,아가페온누리약국,01
경상북도 김천시 김천로 31 (평화동),37813595,36.1262745,128.1068479,재창약국,01
전라남도 여수시 여천체육공원길 10 (신기동),36831174,34.7612841,127.6749639,다소니약국,01
충청남도 천안시 서북구 미라11길 35 (쌍용동),34839062,36.8043469,127.1316238,신유약국,01
부산광역시 강서구 명지오션시티11로 74 1층 102호 (명지동),21843074,35.0840708,128.9040388,이화약국,01
서울특별시 서초구 효령로2길 4 (방배동),12833771,37.4763378,126.9865321,메디팜메트로약국,01
서울특별시 동작구 시흥대로 664 (신대방동),12807478,37.4907024,126.90844,한빛평화약국,01
인천광역시 중구 연안부두로33번길 36 (항동7가),31836828,37.4535982,126.6057888,유한온누리약국,01
경기도 부천시 경인로 565 (괴안동),31864988,37.4869693,126.8172923,하나약국,01
"부산광역시 부산진구 서면로 25 105호 (부전동, 서면삼한골든뷰)",21837465,35.1529566,129.0572714,삼한메디칼약국,01
충남 당진군 순성면 봉소리 90-2,3118200774,36.8429201,126.7135858,순성농협하나로마트,03
"경기도 화성시 삼성1로 144-13, 102호 (석우동)",41827341,37.2168179,127.0788992,뉴욕대학병원약국,01
"충청남도 아산시 탕정면 탕정로 380-2, 3층 (삼성SMD)",34839933,36.8191879,127.0633619,솔빛약국,01
"제주특별자치도 제주시 신대로 128 (연동,신대로128)",39800440,33.4858438,126.4960605,새한온누리약국,01
경남 창원시 의창구 상남로192번길 41-7 신월동,4838200104,35.2273954,128.6914916,남창원농협유통센터 신월점,03
경상남도 창원시 마산합포구 현동4길 4 1층 104호 (우산동),38838192,35.1514983,128.5532141,수약국,01
경상북도 영천시 완산로 53 (완산동),37829165,35.964831,128.9386573,장성약국,01
"충청남도 천안시 동남구 고재20길 3 (원성동, 온누리약국)",34810633,36.8037338,127.1593356,온누리영신약국,01
경기도 광주시 오포읍 회안대로 21,31831702,37.357402,127.2459626,매산약국,01
"경기도 의정부시 용현로105번길 45-30, 103호 (민락동, 문경빌딩)",41834151,37.742438,127.0863412,공원약국,01
서울특별시 금천구 디지털로 200 우리은행 가산IT타워 3층 (가산동),12869848,37.478246,126.8889358,새우리약국,01
"경상남도 창원시 성산구 창원대로 726 (내동, 내동상가아파트)",38839326,35.2171003,128.6704177,정중앙약국,01
경기도 안양시 동안구 동안로 162 지하 1층 (비산동),41841549,37.3932706,126.9504247,평촌마트약국,01
부산광역시 금정구 중앙대로1719번길 16 1층 (부곡동),21824746,35.2379467,129.0912987,참약국,01
경기도 성남시 수정구 산성대로 267 1층 111호 (신흥동),41813618,37.441324,127.1464467,삼정시네마약국,01
전라남도 순천시 이수로 317 (조례동),36822809,34.9541238,127.5183727,밝은약국,01
"서울특별시 서초구 서초대로 335 (서초동, 서흥빌딩)",12846627,37.4952553,127.0180081,교대사랑약국,01
전북 완주군 비봉면 소농리490의1,4028200385,35.9947829,127.140773,고산농협하나로마트비봉점,03
"경기도 시흥시 중심상가로 143 101호 (정왕동, 선빌딩)",31895034,37.3471368,126.7322656,시화라성약국,01
"대구광역시 수성구 명덕로 455 101동 101호 (수성동3가, 수성3가롯데캐슬아파트)",37849352,35.8562366,128.619947,수성솔약국,01
경상남도 김해시 김해대로 2333 (부원동),38840677,35.2265693,128.8820992,김해123약국,01
대구광역시 남구 이천로 40 (봉덕동),37829220,35.8445376,128.5984935,남경북약국,01
"서울특별시 동대문구 고산자로 435, 1층 (제기동)",12855405,37.5786039,127.0381198,제중건재약국,01
전라북도 전주시 완산구 전주객사5길 17 (고사동),35808420,35.8189513,127.1454763,원민약국,01
경상북도 문경시 산양면 불암2길 26 ,5118301991,36.6130914,128.2579128,문경산양우체국,02
"부산광역시 해운대구 센텀2로 10 1층 (우동, 센텀메디칼센터)",21837503,35.1678413,129.1315111,센텀홍은약국,01
서울특별시 양천구 중앙로 235 (신정동),11853123,37.5173924,126.8538328,세왕약국,01
충북 단양군 매포읍 평동1리 1009,3048200873,,,북단양농협하나로마트,03
경상북도 경주시 화랑로 124 (황오동),37812564,35.8442803,129.2143895,천마약국,01
전북 김제시 금산면 봉황로 9,4058200157,35.7130387,126.9913317,김제금산농협하나로마트,03
서울특별시 강남구 논현로 509 1층 1호 (역삼동),12830674,37.5019299,127.036116,팜스약국,01
"경기도 용인시 수지구 상현로 34 102호 (상현동, 성진)",31879845,37.3021903,127.0778897,서원약국,01
"경기도 수원시 장안구 율전로101번길 26, 1층 101호 (율전동)",41839277,37.2986696,126.9676391,래허부한약국,01
"경상남도 창원시 진해구 진해대로776번길 25 103호 (이동, 상보빌딩)",38838249,35.1564102,128.6985219,하나온누리약국,01
전남 보성군 보성읍 보성읍보성리857-36,4138200629,,,보성축협하나로마트본점,03
"경상남도 창원시 의창구 의안로31번길 28-5, (중동)",38837323,35.2645928,128.6210078,성우약국,01
"충청북도 청주시 흥덕구 1순환로 511-1, (봉명동)",33815585,36.6467066,127.4653312,정다운약국,01
전라북도 무주군 무주읍 주계로 74,35815329,36.0060206,127.6583105,푸른약국,01
충청북도 청주시 상당구 쇠내로 82 (금천동),33801134,36.6248066,127.502837,금천약국,01
광주광역시 북구 첨단연신로 97 305호 (신용동),36827037,35.2065769,126.8640294,민약국,01
"서울특별시 마포구 월드컵북로 396 B1010호 (상암동, 누리꿈스퀘어)",12852503,37.5794648,126.8898316,드림약국,01
서울특별시 중랑구 면목로 330 (면목동),11841320,37.581323,127.0887219,로데오약국,01
전라북도 전주시 덕진구 거북바우로 132 (인후동2가),35820659,35.8426477,127.1499507,약초당한약국,01
"경기도 하남시 덕풍서로 70 2층 (덕풍동, 이마트)",41808061,37.5527848,127.2053856,하남중앙약국,01
경기도 안산시 단원구 적금로 114 (고잔동),41822536,37.3183141,126.8263036,정문약국,01
충청북도 제천시 의림대로 85 (명동),33816620,37.1355962,128.209079,탑라이프온누리약국,01
충남 공주시 신풍면 산정리 72번지,3078200173,36.515096,126.9581969,신풍농협하나로마트,03
부산광역시 남구 수영로 340 (대연동),21836639,35.138466,129.1029587,플러스온누리약국,01
경상북도 경산시 성암로 42 (옥산동),37802429,35.8227741,128.722328,인과원약국,01
전라북도 임실군 오수면 오수로 178,35816406,35.5400583,127.3268625,대광약국,01
경기도 화성시 정남면 만년로 540,31863515,37.1694714,126.983655,100세약국,01
전라남도 순천시 비봉2길 7 (조례동),36809179,34.971883,127.5212247,전남약국,01
경상북도 김천시 농소면 농남로 54 ,5108303579,36.1050437,128.1732522,김천농소우체국,02
서울특별시 동대문구 장한로25길 2 1층 (장안동),12847003,37.5718746,127.0711172,장안제일약국,01
경상북도 포항시 북구 용두산길 35 (장성동),37817043,36.0669321,129.3810518,메디팜조아약국,01
전남 고흥군 남양면 망주리 481-1,4138203169,34.7595856,127.3674393,팔영농협하나로마트망주지소,03
경남 거창군 고제면 농산리 753의 3,6118200145,35.8144721,127.8718531,거창북부농협하나로마트고제점,03
"경상남도 창원시 의창구 원이대로 269 (봉곡동, 한빛메디칼센터)",38810859,35.2432723,128.6497907,예은약국,01
경상북도 군위군 군위읍 중앙길 72,37827502,36.234643,128.56655,백세약국,01
충남 공주시 무령로 307 (옥룡동),3078208438,36.4564614,127.1339105,공주농협하나로마트옥룡점,03
전라남도 나주시 나주로 199 (중앙동),36832073,35.0343653,126.7214391,뉴욕약국,01
경기도 남양주시 와부읍 덕소로97번길 2 동산빌딩 502호,41848268,37.5854716,127.2124722,덕소우리약국,01
"경기도 성남시 분당구 돌마로90번길 4 1동 304호 (구미동, 엘레강스프라자)",31836674,37.3497133,127.1117351,분당미금약국,01
경상남도 사천시 건어시장길 28 (동금동),38806908,34.9284082,128.0758264,천일약국,01
인천광역시 미추홀구 경인로 233 1층 1호 (도화동),41845242,37.4644062,126.6684686,다나약국,01
전라남도 목포시 고하대로 730 (산정동),36820725,34.8108515,126.3761737,종로약국,01
경상북도 안동시 일직면 중앙통길 31 ,5088300865,36.4739596,128.6576625,안동일직우체국,02
서울특별시 강서구 까치산로 151 104호 (화곡동),12804576,37.550966,126.8521182,한우리약국,01
강원 원주시 흥업면 사제로 2 (남원주농협) 남원주농협,2248200510,37.3035111,127.9191897,남원주농협하나로마트본점,03
전라남도 여수시 흥국로 98 (신기동),36816990,34.7613522,127.6729179,여천좌수영약국,01
인천광역시 미추홀구 소성로 333 1층 (문학동),41835735,37.4375953,126.684277,굿모닝약국,01
충청남도 청양군 청양읍 중앙로 126,34823018,36.4505057,126.8031393,낙원약국,01
인천광역시 부평구 경인로1104번길 23 (일신동),31892779,37.4845848,126.7421563,한울약국,01
충청북도 충주시 봉계1길 60 (칠금동),33809917,36.9815467,127.9160056,행복한약국,01
"경기도 화성시 동탄지성로 136 203호 (능동, 우리프라자)",41812816,37.2096665,127.0607007,능동키즈약국,01
인천광역시 계양구 용종로 2 (계산동),31863612,37.5340374,126.7415048,계산프라자약국,01
"경기도 고양시 일산서구 일현로 97-11, 일산 위브더제니스 158-A호 (탄현동, 일산 위브더제니스)",41821955,37.6940172,126.7628568,제니스온누리약국,01
통영시 용남면 남해안대로442,6128300709,34.8688333,128.4442761,통영용남우체국,02
경기도 남양주시 와부읍 덕소로 87 87,41819942,,,평강약국,01
"서울특별시 성북구 장위로 127-1, 한양빌딩 2층 (장위동)",11893303,37.6136758,127.0508746,지선약국,01
강원도 강릉시 주문진읍 주문로 105,32815964,37.8931155,128.8268917,보람약국,01
충청남도 아산시 음봉면 음봉로681번길 24,34834052,36.8386298,127.0862025,초원약국,01
"경기도 안양시 동안구 흥안대로456번길 82 107,108호 (평촌동, 밀레니엄프라자)",41814444,37.3931872,126.9799528,코끼리약국,01
대전광역시 동구 동서대로 1653 1층 (용전동),34803131,36.3482867,127.4334216,백화당약국,01
대전광역시 서구 계룡로 586 105호 (괴정동),34807535,36.3415678,127.3884489,케이엠티약국,01
충청남도 아산시 도고면 온천대로,34823131,,,대영약국,01
경상북도 성주군 성주읍 시장길 13,37826875,35.9172034,128.2863138,세종약국,01
충청남도 부여군 부여읍 신동엽길 6,34838341,36.2774901,126.9102053,조은약국,01
대구광역시 북구 팔달로 147 1층 102호 (노원동3가),37821521,35.889414,128.5662102,장미약국,01
울산광역시 남구 삼산중로 98 (삼산동),38840073,35.542182,129.3356767,아름약국,01
대구광역시 남구 대명로 125 (대명동),37806874,35.8396049,128.5715399,부산약국,01
서울특별시 동대문구 답십리로66길 95 1층 (장안동),12847496,37.5685977,127.0662424,행복한약국,01
"전라남도 목포시 포미로10번길 14 (용해동, 유정빌딩1층 101호)",36830771,34.8166556,126.3988876,조은약국,01
서울특별시 중랑구 신내로 82 금강프라자 1층 108호 (신내동),12869066,37.6066852,127.0955682,수약국,01
"전라남도 여수시 신월로 655 상가A동 103층 1호 (국동, 서희스타힐스)",36832146,34.7308082,127.7159916,비타민약국,01
"경기도 평택시 현촌4길 2-41, 103호 (용이동, 한국마트 주차빌딩)",41831519,36.9991257,127.1332048,햇살약국,01
전라남도 영광군 염산면 칠산로 75 ,4108301586,35.2175794,126.3711005,염산우체국,02
경기도 고양시 일산동구 정발산로 33 낙원프라자 4층 402-1호 (장항동),41844483,37.6571758,126.7725686,코코약국,01
전라남도 순천시 대석길 31 (연향동),36825158,34.9460207,127.5255097,소망약국,01
충청남도 천안시 동남구 망향로 198 (안서동),34828630,36.8406809,127.1748448,대학약국,01
서울특별시 영등포구 여의나루로 42 (여의도동),12853828,37.5213932,126.9249971,아이비약국,01
경기도 용인시 기흥구 새천년로 20 그린프라자 102호 (신갈동),41844441,37.2890935,127.1114203,그린온누리약국,01
서울특별시 동작구 신대방2길 1 (신대방동),11811897,37.4878035,126.9126258,신대방수연약국,01
경북 울진군 죽변면 죽변리 417-16,5078202621,,,울진농협하나로마트죽변점,03
충청북도 청주시 흥덕구 짐대로,33801274,,,국민약국,01
전라북도 전주시 덕진구 안덕원로 146 (진북동),35820624,35.8321392,127.1445835,보령당한약국,01
경상북도 경산시 경산로44길 11 (옥산동),37838288,35.827575,128.7265,유림약국,01
"서울특별시 종로구 창경궁로 271-1, (혜화동)",11830140,37.5855683,127.0006014,성진약국,01
서울특별시 강남구 일원로 53 1층 (일원동),11885653,37.4892734,127.0818266,이삼성약국,01
광주광역시 서구 월드컵4강로 194 1층 (내방동),36835455,35.1534239,126.8696914,토마토 온누리 약국,01
"대구광역시 달서구 월서로 14 131동 106호 (상인동, 상인e편한세상상가)",37819321,35.8217697,128.5331257,건중약국,01
"인천광역시 서구 중봉대로 588 104호 (연희동, 청라센트럴프라자)",41816960,37.532094,126.6502739,청라중앙약국,01
제주특별자치도 제주시 애월읍 일주서로 7136,39803554,33.4850417,126.412296,하귀하나로약국,01
"경기도 남양주시 경춘로1256번길 9 401-1호 (평내동, 오렌지웰빙타워)",31862365,37.6461136,127.2354104,참빛약국,01
전남 완도군 노화읍 노화로 852,4158210536,34.177157,126.5717121,노화농협하나로마트본점,03
전라남도 함평군 함평읍 광남길 71 102호 (광주은행(함평지점)),36834513,35.0638681,126.5196516,함평약국,01
광주광역시 북구 비엔날레로 75 1층 (용봉동),36802531,35.1784736,126.8897874,튼튼한약국,01
서울특별시 노원구 동일로 1417 1층 (상계동),12861367,37.6550409,127.0599912,마음약국,01
전라북도 순창군 쌍치면 삽실길 1,35822155,35.5001052,127.0007712,새쌍치약국,01
"경상남도 김해시 진영읍 진영로 187-1,",38824299,35.30312,128.7337028,진영한마음약국,01
경기도 포천시 내촌면 내촌로 60,41819438,37.7853909,127.227278,서울약국,01
부산광역시 동래구 명안로85번길 45 (명장동),21816263,35.2044259,129.1019913,오오약국,01
대전광역시 유성구 전민로70번길 38 (전민동),34803271,36.3987914,127.4025069,새생명약국,01
"서울특별시 관악구 낙성대역길 91, 1층 (봉천동)",12855898,37.4744628,126.9638567,경희으뜸한약국,01
전라남도 완도군 약산면 약산로 370-1 ,4158300485,34.3935458,126.8988411,약산우체국,02
인천광역시 동구 금곡로 66 (금곡동),31800947,37.4731205,126.6427416,복지약국,01
"충청남도 천안시 동남구 망향로 187 (안서동, 영남빌딩)",34834087,36.8398898,127.173994,명진약국,01
서울특별시 강동구 구천면로 304 3층 (천호동),12824593,37.5467197,127.1348298,진약국,01
경기 광주시 오포읍 오포로 698,1268303020,37.3581993,127.2188727,곤지암우체국,02
"서울특별시 서초구 반포대로 235 지하1층 (반포동, 효성빌딩)",12823210,37.5006686,127.0032572,조달약국,01
충북 충주시 금가면 도촌리 133-5,3038207441,37.0437005,127.9269739,중원농협하나로마트금가점,03
경기도 여주시 대신면 여양로 1457 삼인한의원,31825486,37.3741194,127.5864512,신화당약국,01
경상남도 거제시 거제중앙로 1908 (고현동),38823519,34.8884361,128.6233328,신세계약국,01
대구광역시 서구 달서로 191 (비산동),37828118,35.8791255,128.5710833,새현약국,01
제주특별자치도 제주시 중앙로 318 (이도이동),39800903,33.4926311,126.535263,주원약국,01
서울특별시 서대문구 응암로 53 (북가좌동),11858656,37.578207,126.9097977,거북당약국,01
대전광역시 대덕구 비래동로 37 (비래동),34815007,36.3572454,127.4507225,생수당약국,01
부산광역시 부산진구 가야대로 755 1층 일부 (부전동),21819921,35.1578907,129.0542292,서면정약국,01
"서울특별시 성북구 보국문로 43 103호 (정릉동, 야원빌딩)",12844195,37.6081881,127.0098725,신정릉우리약국,01
전라남도 강진군 강진읍 중앙로 95,36823961,34.6386852,126.7674789,한사랑약국,01
경상북도 포항시 북구 흥해읍 흥해로 69,37809032,36.1108577,129.3476554,대림약국,01
"경기도 하남시 미사강변대로226번길 9 105호 (망월동, 송하빌딩)",41833864,37.5699973,127.1843244,명가한약국,01
광주광역시 광산구 첨단중앙로 23 1층 104호 (월계동),36827754,35.207184,126.8403959,백약국,01
"경기도 양주시 백석읍 부흥로 1172-2,",31848397,37.7947842,127.0089419,가나약국,01
대전광역시 중구 계백로 1560 (유천동),34813799,36.3171113,127.3936154,미소담약국,01
"제주특별자치도 제주시 연동8길 7 (연동,1층)",39800563,33.4851347,126.4908198,신세계약국,01
경상남도 진주시 대곡면 남강로2438번길 56,38840812,35.2618315,128.1685276,삼거리약국,01
"서울특별시 강남구 선릉로86길 17 102호 (대치동, 선릉 MT 빌딩)",12861596,37.5035623,127.05109,테헤란건강약국,01
"서울특별시 종로구 종로 197-2, (종로4가)",11844256,37.5710649,126.999649,보생약국,01
경기도 김포시 대곶면 율생중앙로 7,1368302334,37.6489582,126.5829401,김포대곶우체국,02
전남 고흥군 도덕면 가야리 849-5,4168215913,34.6054587,127.1823647,녹동농협하나로마트가룡점,03
"서울특별시 관악구 봉천로 227 304호 (봉천동, 보라매샤르망)",12858633,37.4900225,126.9271079,보라매성심약국,01
서울특별시 구로구 개봉로 57 (개봉동),12866199,37.4907367,126.8557608,굿모닝약국,01
"인천광역시 남동구 앵고개로 928 108호 (논현동, 디에이프라자)",31830323,37.4017932,126.733912,소래약국,01
경기도 부천시 부천로29번길 7 부천메디컬프라자 104호 (심곡동),41817206,37.4868851,126.7830116,스타약국,01
"대전광역시 유성구 어은로 57 (어은동, 한빛아파트상가)",34803548,36.3650212,127.3561171,한빛약국,01
서울특별시 강동구 아리수로93길 19 202호 (강일동),12855651,37.5653807,127.174118,순수 한약국,01
"서울특별시 송파구 석촌호수로 61 (잠실동, 트리지움상가 305호)",12841111,37.5107056,127.0862397,비타민약국,01
울산광역시 동구 진성11길 42 (전하동),38810514,35.5065218,129.4274007,태화당약국,01
"경기도 수원시 영통구 매영로345번길 7 125호 (영통동, 영통트리플렉스)",41839234,37.252766,127.070896,푸른나무 한약국,01
"경기도 안산시 단원구 당곡2로 23 122호 (고잔동, 바상가)",31860974,37.3249957,126.8378918,그린팜약국,01
전남 완도군 보길면 부황리 1-2번지,4158208739,34.1695586,126.567347,노화농협하나로마트보길점,03
강원 홍천군 홍천읍 홍천로 323,2238203644,37.6887885,127.8815471,홍천농협파머스마켓,03
서울특별시 중구 다산로34길 47 (신당동),11835907,37.5617659,127.0171043,동화약국,01
경기도 안성시 공도읍 진사길 40 113호,31858091,36.9908926,127.1396219,온누리우주약국,01
서울특별시 동대문구 이문로1길 25 1층 (회기동),12842826,37.5892881,127.0528581,보림한약국,01
충남 보령시 청라면 당안길 14,3138204738,36.3910453,126.673994,대천농협하나로마트청라점,03
경기도 시흥시 배곧4로 103 대경프라자 108호 (정왕동),41845668,37.3738892,126.734586,더튼튼약국,01
경기도 양주시 광적면 광적로 4 4,41807855,37.820044,126.9852845,가래비태평양약국,01
횡성군 둔내면 둔내로 57,2248301030,37.5123257,128.2170395,둔내우체국,02
전라북도 익산시 선화로 345 (영등동),35815019,35.9462488,126.9677754,동부종로약국,01
전남 고흥군 풍양면 야막리 494-1,4138200522,34.5763685,127.2425668,풍양농협하나로마트본점,03
경상북도 구미시 구미대로 174 홈플러스 구미광평점 2층 (광평동),37837303,36.1027545,128.3637496,프라자약국,01
경남 거창군 신원면 신차로 3054 남거창농협신원지점,4328200372,35.5666173,127.9260649,남거창농협하나로마트신원점,03
"경기도 오산시 역광장로 55 동일빌딩 1층 102,103호 (오산동)",31873863,37.1453841,127.0674455,홍약국,01
"경상북도 영천시 신녕면 신화로 114-8,",37818091,36.0449453,128.7996457,휘명동산약국,01
전남 광양시 중동 1359-1번지,4168215403,34.940735,127.6929251,동광양농협본점,03
경상북도 상주시 이안면 무운로 1485 ,5118301972,36.5755099,128.1476764,상주이안우체국,02
경북 의성군 단촌면 세촌리 1086,5088211292,36.4233518,128.6711999,새의성농협하나로마트단촌점,03
경기도 광명시 광명로 892 1층 (광명동),31819800,37.4785274,126.8543359,푸른약국,01
경기도 화성시 병점2로 65 우남프라자 105호 (병점동),41847083,37.2080131,127.0433406,비전약국,01
"제주특별자치도 제주시 도령로 73 1층 103호 (연동, 연동 펠리체)",39805930,33.4900876,126.4859156,마음약국,01
서울특별시 종로구 통일로 262 4호 1층 (무악동),12866679,37.5755306,126.9570172,정원약국,01
부산광역시 수영구 광남로 224 (민락동),21808449,35.1587607,129.1232436,메디팜정은주약국,01
광주광역시 광산구 사암로171번길 52 1층 (우산동),36804533,35.1600925,126.8050091,에덴약국,01
부산광역시 해운대구 센텀2로 25 센텀드림월드 105호 (우동),21842523,35.1669457,129.1329258,센텀드림약국,01
서울특별시 송파구 오금로11길 37 101호 (방이동),12814377,37.5156434,127.1111895,오렌지온누리약국,01
"경기도 수원시 장안구 화산로125번길 5 천천 푸르지오 3층 303-2, 304호 (천천동)",41846851,37.2942778,126.9803515,푸른약국,01
전라북도 남원시 광한서로 57 (금동),35805048,35.4062955,127.3779805,위생약국,01
서울특별시 성북구 길음로7길 6 길음뉴타운9단지래미안 상가 1층 7호 (길음동),11817763,37.6043358,127.0223968,신세원약국,01
"전라북도 군산시 문화로 37 1층 (문화동, 대한빌딩)",35809086,35.9700466,126.7099283,해맑은약국,01
세종특별자치시 조치원읍 새내5길 2 2,34807811,36.5983431,127.2984558,대수약국,01
전라북도 전주시 덕진구 송천중앙로 123 (송천동1가),35818344,35.8580657,127.1205985,보람약국,01
경기도 구리시 검배로 60 (수택동),31893406,37.5965416,127.1452602,사슴약국,01
경기도 용인시 수지구 수지로342번길 11 304호 (풍덕천동),41810392,37.3273757,127.0957176,나무약국,01
서울특별시 중랑구 겸재로 84 (면목동),11839775,37.5858918,127.077244,동성약국,01
"서울특별시 영등포구 양평로 129 (양평동5가,1층)",12819972,37.5379399,126.8932731,선유도온누리약국,01
서울특별시 양천구 목동중앙로 95 (목동),12801704,37.5376107,126.8723016,나눔약국,01
"인천광역시 부평구 부평대로 9 문화드림빌 1층 101, 102, 103호 (부평동)",31811230,37.492107,126.7226033,문화약국,01
울산광역시 남구 삼산중로 86 1층 (삼산동),38821320,35.5412484,129.3357371,지니약국,01
경기도 안산시 상록구 석호로 184 (사동),31868860,37.2960431,126.851725,감골약국,01
"충청북도 청주시 흥덕구 대농로 43 1차상업시설 상업시설동 3층 320일부호 (복대동, 신영지웰시티)",33808295,36.6433461,127.4264585,지웰비타민약국,01
광주광역시 북구 서하로 378 1층 (문흥동),36824071,35.1854507,126.9213042,서울약국,01
서울특별시 관악구 쑥고개로 53 1층 (봉천동),11857391,37.4798102,126.9424422,희망약국,01
서울특별시 동작구 서달로 144 (흑석동),12858081,37.5062644,126.9613428,우정약국,01
제주특별자치도 제주시 과원북4길 35 (노형동),39803309,33.4812332,126.4863676,대정약국,01
"경기도 군포시 산본로323번길 16-7, 802호호 (산본동, 롯데프라자)",41838335,37.3592302,126.9317628,하박사약국,01
"대구광역시 달성군 현풍면 현풍중앙로 62-1,",37843192,35.694945,128.4453991,하리약국,01
"인천광역시 남동구 인주대로 664 112호 (구월동, 메인프라자2차)",41804341,37.4491755,126.7108112,하늘약국,01
"경기도 파주시 적성면 청송로 1026-1, 203호 (풍년빌딩)",31874100,37.9542772,126.9192833,정민약국,01
"경기도 시흥시 배곧4로 32-9, 골든프라자 108호 (정왕동)",41841701,37.3768086,126.7272129,돌고래약국,01
부산광역시 서구 대신공원로 29 (서대신동3가),21832111,35.12055,129.0165787,가까운약국,01
인천광역시 미추홀구 인하로 261 (주안동),31859674,37.4484097,126.6772675,늘푸른약국,01
광주광역시 광산구 장신로 141 115호 (수완동),36819531,35.1910148,126.8256233,필리아약국,01
서울특별시 동대문구 약령중앙로 5 (제기동),12855103,37.5788451,127.0365963,약손당약국,01
경상남도 김해시 분성로 321 골든에비뉴 112호 (서상동),38840782,35.233617,128.8811255,정다운약국,01
울산광역시 남구 삼산중로 71 1층 (달동),38840332,35.5399156,129.3351073,거봉약국,01
경기도 의정부시 천보로 38 (민락동),31892582,37.7440418,127.0968731,시티약국,01
강원 영월군 한반도면 서강로 736-3,3628200020,37.2353097,128.327448,한반도농협하나로마트 신천점,03
강원도 원주시 원일로 114 (중앙동),32804946,37.3499886,127.9487173,동아약국,01
경기도 수원시 권선구 세화로169번길 25 (서둔동),31833462,37.2667264,126.9917164,대동온누리약국,01
전라북도 전주시 덕진구 송천중앙로 147 (송천동1가),35821281,35.8600321,127.1209994,회생약국,01
서울특별시 마포구 월드컵로 75 1층 (망원동),12815543,37.5556333,126.9101615,옵티마상원약국,01
경북 칠곡군 왜관읍 284-22,5048204993,,,왜관농협하나로마트남부점,03
경상남도 진주시 모덕로 216 (상대동),38805677,35.1885147,128.1175146,대동약국,01
"경기도 고양시 덕양구 삼송로 94-22, 105호 (삼송동, 신성프라자)",41847962,37.6503383,126.8841003,활기찬 약국,01
강원도 강릉시 주문진읍 항구로 62 2층,32816570,37.8927372,128.8281963,미인 한약국,01
전라북도 군산시 의료원로 32 (지곡동),35816619,35.9557315,126.7120608,군산메디칼약국,01
"서울특별시 성북구 오패산로 99 102호 (하월곡동, 동민빌딩)",12853321,37.6107785,127.0352036,동민약국,01
"경기도 수원시 권선구 삼천병마로1592번길 3-0, (오목천동)",31876587,37.2449651,126.9637403,바다약국,01
부산광역시 기장군 정관읍 정관로 495 1층 102호,21837066,35.3259201,129.1706654,드림약국,01
충청남도 아산시 배방읍 고속철대로 61 지하 1층,34842616,36.7897896,127.1078302,하임약국,01
충청남도 계룡시 엄사면 엄사중앙로 107,34802339,36.2902814,127.2423245,계룡온누리약국,01
경기도 수원시 장안구 창룡대로 191 (연무동),31851398,37.2926391,127.0308939,다정약국,01
전라남도 목포시 백년대로 291 (상동),36808717,34.803998,126.419575,바다약국,01
전라남도 목포시 백년대로297번길 8 (상동),36829471,34.804531,126.4199034,복음사랑약국,01
"경기도 성남시 분당구 성남대로 926 1층 (야탑동, 메트로빌딩)",31815561,37.4125779,127.129292,메트로약국,01
서울특별시 강동구 고덕로 254 이화빌딩 (명일동),12864129,37.554684,127.1537015,박선영약국,01
서울특별시 서초구 동광로1길 112 206호 (방배동),11854740,37.4968205,126.9845952,즐거운약국,01
전라북도 익산시 금마면 미륵사지로1길 35,35806869,35.989799,127.0533533,금마종합약국,01
경상북도 안동시 경북대로 177 (수상동),37832964,36.5478979,128.7010923,안동정문약국,01
"서울특별시 금천구 남부순환로 1372 (독산동, 현경빌딩)",12821195,37.4794589,126.9034727,강남약국,01
서울특별시 금천구 금하로24길 40 (시흥동),11813504,37.4491743,126.9082394,별장약국,01
"경기도 화성시 떡전골로 60 107동 203호 (병점동, 효성해링턴플레이스)",31848729,37.2050623,127.0362476,병점중앙약국,01
충남 계룡시 신도안면 신도안2길 63,3088304091,36.3004189,127.2425886,계룡남선우체국,02
제주특별자치도 제주시 동화로 28 1층 (화북일동),39802469,33.5178247,126.5727963,옵티마힐링약국,01
"대구광역시 동구 안심로22길 60 1층 104호 (율하동, 동흥메디칼센타)",37820516,35.8631047,128.6983703,율하온누리약국,01
"경상남도 통영시 동문로 3-1, (태평동)",38839105,34.8463466,128.4243066,동피랑약국,01
"경기도 안양시 동안구 평촌대로 142 203호 (평촌동, 트윈마트)",31864562,37.3850003,126.9598991,스마일약국,01
경기도 수원시 영통구 인계로 218 (매탄동),31894003,37.2649446,127.0412761,신원약국,01
경기도 수원시 팔달구 덕영대로 899 세진브론즈빌 2층 211호 (매산로1가),31855393,37.2681505,127.0003154,역전약국,01
경기도 동두천시 삼육사로 1007 (생연동),31832245,37.8994387,127.0617812,푸른약국,01
"서울특별시 관악구 난곡로 53 303호 (신림동, 관악산휴먼시아상가동)",12846210,37.4601484,126.9193431,이화온누리약국,01
서울특별시 송파구 동남로 215 (가락동),12824712,37.4966077,127.1315631,지앤미약국,01
강원도 평창군 봉평면 기풍로 145,32816758,37.6154568,128.3780952,봉평약국,01
대전광역시 대덕구 동서대로 1783 (송촌동),34837124,36.355139,127.4435831,이지약국,01
전라남도 목포시 용당로 53 (산정동),36827592,34.7924049,126.4018737,소망약국,01
"서울특별시 강서구 금낭화로23길 25 101호 (방화동, 도시개발6단지)",11889110,37.5786033,126.8108332,삼정약국,01
"충남 당진시 당진중앙1로 136 (읍내동,농협하나로마트) 당진농협계성지점",3118202239,36.8952056,126.6311682,당진농협하나로마트계성점,03
전라북도 순창군 순창읍 장류로 333,35821728,35.3770444,127.1388268,다나약국,01
전남 신안군 도초면 수항리 1358의31,4118200661,34.7022999,125.9539328,도초농협하나로마트,03
"인천광역시 부평구 동수로 168-1, (부개동, 승민빌딩)",41828062,37.4856902,126.7373308,한나약국,01
"서울특별시 양천구 목동동로 63 109호 (신정동, 대영프라자)",11853565,37.5153184,126.8623249,한솔약국,01
경기도 용인시 처인구 백옥대로 1117 (김량장동),41843703,37.2353642,127.2085246,새싹약국,01
"경기도 수원시 영통구 봉영로 1569 409-1호 (영통동, 뉴월드프라자)",41803825,37.2520638,127.0710165,미래팜영통약국,01
서울특별시 중랑구 사가정로 401 1층 (면목동),11884762,37.5807351,127.0893977,정다운온누리약국,01
전남 장성군 장성읍 야은리 280-5,4098203627,35.3430457,126.8170151,장성농협하나로마트장북점,03
충청북도 영동군 영동읍 계산로 91,33816565,36.1717788,127.7867772,일편단심약국,01
대구광역시 서구 팔달로 188 1층 (원대동3가),37810707,35.8881942,128.5705632,라온약국,01
부산광역시 동구 중앙대로195번가길 53 (초량동),21800235,35.1175193,129.0377387,소림약국,01
서울특별시 노원구 상계로10길 12 1층 (상계동),12850551,37.6569736,127.0676366,미소약국,01
"인천광역시 중구 공항로 272 (운서동, 인천국제공항여객터미널 3층)",41833694,37.4583507,126.4276993,W-store 스타약국,01
원주시 지정면 간현로 132,2248302475,37.3622329,127.8395952,강원지정우체국,02
"대전광역시 동구 대전로 782-1, (원동)",34836888,36.3295817,127.4337767,보명사약국,01
경기도 하남시 미사강변대로 220 한강트윈프라자1 107호 (망월동),31892914,37.5692596,127.1843874,미사대학약국,01
경남 진주시 수곡면 옥수로 645 (수곡농협),6138200909,35.1983393,127.9302076,수곡농협하나로마트본점,03
경상북도 영주시 풍기읍 동양대로 3,37824562,36.871512,128.5268134,풍기신세계약국,01
"전라북도 임실군 오수면 오수로 142-2,",35814691,35.5378867,127.3290601,메리팜백제약국,01
전라북도 전주시 덕진구 건산로 238 (인후동1가),35809710,35.8342542,127.1633606,최약국,01
경상북도 상주시 상서문로 52 (남성동),37813757,36.4145298,128.1562099,이화약국,01
서울특별시 마포구 마포대로 52 고려아카데미텔Ⅱ 1층 105호 (도화동),12862517,37.5402493,126.9475554,도원약국,01
"경상북도 안동시 대안로 162-1, (남문동)",37811681,36.5641979,128.7304165,예약국,01
"서울특별시 성동구 독서당로40길 39 2층 (옥수동, 옥수 어울림)",12860441,37.5417216,127.0180142,어울림이층약국,01
광주광역시 광산구 상무대로 258 (송정동),36825956,35.1414098,126.7950675,우리일층약국,01
광주광역시 북구 서하로 389 1층 (문흥동),36835145,35.1853772,126.9227102,한솔약국,01
"서울특별시 중랑구 신내로 201 1층 (신내동, 홈플러스 서울 신내점)",12835889,37.6158381,127.0937421,원플러스약국,01
부산광역시 북구 금곡대로199번길 3 (화명동),21836701,35.2265698,129.0105906,왕약국,01
강원도 홍천군 북방면 두개비산로 329,32806591,37.7039202,127.8533591,장창만약국,01
"경상북도 경산시 경안로 192-1, (중방동)",37804936,35.8247216,128.7373435,온누리영제약국,01
대구광역시 중구 태평로 3 (달성동),37807099,35.878455,128.5782243,백년약국,01
대전광역시 유성구 유성대로 772 (장대동),34800930,36.3609648,127.3362767,대형약국,01
서울특별시 금천구 시흥대로 214 (시흥동),12837351,37.4530528,126.9016824,비즈메드약국,01
"경상북도 문경시 중앙로 85-2, (점촌동)",37833821,36.5932439,128.1974487,조은약국,01
"서울특별시 서초구 서운로 208 1층 106호 (서초동, 삼호종합상가)",12804487,37.5015193,127.0217846,메디팜나리약국,01
"경상남도 창원시 마산합포구 천하장사로 87 (상남동, 우신뉴타워아파트)",38838851,35.2114765,128.5726329,새봄안약국,01
경상남도 창원시 마산합포구 3·15대로 27 (월남동4가),38836912,35.1824194,128.5589935,동진한약국,01
서울특별시 양천구 오목로 325 지하1층 (목동),12865486,37.5249741,126.8738106,송약국,01
경상북도 의성군 안계면 용기4길 10,37818589,36.3886026,128.4337344,안성약국,01
대구광역시 동구 장등로 12 지하1층 4호 (신천동),37841866,35.8683821,128.62375,새건강한약국,01
경남 진해시 성내동 379,6098200235,35.1117181,128.7498565,진해웅천농협하나로마트본점,03
"경기도 고양시 덕양구 성신로 10 112호 (화정동, 글로버프라자)",31866123,37.6276427,126.8297967,화정푸른솔약국,01
경상남도 진주시 도동천로 113 (상대동),38807955,35.1813036,128.1118967,우인약국,01
서울특별시 성북구 보국문로 33 1층 106호 (정릉동),12865583,37.6073767,127.0101198,정릉아름드리약국,01
대전광역시 서구 계백로 1426 107호 (도마동),34814001,36.3125381,127.3796828,서울약국,01
경남 밀양시 상남면 평촌리 765,6158201068,35.4112728,128.7756345,상남농협하나로마트본점,03
대전광역시 대덕구 대전로 1119 (오정동),34838244,36.3544775,127.4149115,하선약국,01
"경기도 고양시 일산서구 일현로 47 108호 (탄현동, 예일큰프라자)",41805712,37.6915683,126.762776,우리팜약국,01
부산광역시 서구 구덕로 114 (충무동1가),21834831,35.0967494,129.0238354,새봄약국,01
광주광역시 남구 유안초등북길 1 (봉선동),36815241,35.1261289,126.9140215,그랜드 온누리 약국,01
서울특별시 양천구 신목로 84 1층 (신정동),12854646,37.5221864,126.8745729,중앙제일약국,01
서울특별시 송파구 올림픽로 145 리센츠 4층 4B01호 (잠실동),12830739,37.5119636,127.0870103,더함약국,01
"경기도 평택시 현신3길 76 701동 101호 (용이동, 평택 용이2차 푸르지오)",41815475,36.9975316,127.1426227,용이푸른약국,01
"경기도 오산시 부산중앙로 25-6, 106,107호 (부산동)",41844114,37.1509103,127.0907427,시티약국,01
경기도 광주시 오포읍 능평로 203 1층,31820468,37.3450531,127.1775172,오포온누리약국,01
"서울특별시 서초구 남부순환로356길 15 111,112,126호 (양재동, 양재종합시장)",12814164,37.4843263,127.0379729,동우약국,01
"경기도 시흥시 진말로9번길 2 402호 (장곡동, 부석프라자)",41840143,37.378477,126.7852551,코끼리약국,01
충청북도 청주시 흥덕구 2순환로 1256 101호 (강서동),33815488,36.6240761,127.431074,장수약국,01
"서울특별시 용산구 이촌로 248 11동 103-1호 (이촌동, 한강맨션)",11811072,37.5192821,126.9730896,양지약국,01
"서울특별시 중랑구 망우로 271 (상봉동, 서울중랑우체국)",11825901,37.5959175,127.0828423,사랑약국,01
서울특별시 동대문구 경희대로 19 (회기동),12803022,37.5934114,127.0524588,경희동문약국,01
전북 익산시 웅포면 강변로 11,4038203629,36.0645156,126.8773095,익산웅포우체국,02
경상북도 안동시 와룡면 퇴계로 833 ,5088300958,36.6170573,128.7669221,안동와룡우체국,02
대전광역시 대덕구 대덕대로1470번길 68 (목상동),34800433,36.446423,127.4115909,신탄약국,01
부산광역시 북구 금곡대로 27 더청명빌딩 1층 (덕천동),21827249,35.2123374,129.0041392,청명약국,01
"서울특별시 강남구 자곡로 120 107호 (자곡동, 세곡드림프라자)",12856690,37.4721498,127.0965163,햇빛약국,01
광주광역시 서구 풍금로 167 (금호동),36833151,35.1309005,126.8592337,금호제일약국,01
충북 진천군 문백면 봉죽리 330-3,3018201330,36.7849699,127.4353874,문백농협하나로마트,03
충청남도 공주시 무령로 301 (옥룡동),34824910,36.4561907,127.13317,하나약국,01
경기도 평택시 안중읍 안중로131번길 4 도도와빌딩 1층,41822951,36.9890765,126.9311861,조은약국,01
대구광역시 달서구 도원로 19 (도원동),37827871,35.8079343,128.5361071,생명샘약국,01
인천광역시 부평구 동수로 61 113호 (부평동),41815688,37.4855958,126.7254245,오가약국,01
"경상남도 김해시 가락로 32-1, (부원동)",38813513,35.2294287,128.8824533,성심약국,01
광주광역시 남구 회서로22번길 17 (주월동),36833649,35.129795,126.8922341,초락동 종로 한약국,01
서울특별시 관악구 신림로 198 1층 (신림동),12865435,37.4750625,126.9368917,한소망약국,01
"경기도 군포시 광정로 58 101호 (산본동, 신산본빌딩)",31833730,37.358508,126.9309869,김온누리약국,01
경상북도 김천시 지례면 장터길 54,37811509,35.9873609,128.0291234,성인약국,01
서울특별시 송파구 백제고분로 127 (잠실동),11847611,37.5064655,127.0814485,정선약국,01
광주광역시 북구 중문로 84 (우산동),36836036,35.1799752,126.9209375,정약국,01
광주광역시 서구 무진대로 904 (광천동),36807109,35.1605756,126.8798732,터미널약국,01
강원도 원주시 치악로 1504 (단구동),32801432,37.3191036,127.9671545,유약국,01
"대구광역시 중구 국채보상로 630 1층 104,105호 (공평동)",37852183,35.8699679,128.5994567,나라약국,01
"서울특별시 영등포구 신풍로 77 A동 지하2층 116호 (신길동, 래미안에스티움)",11866411,37.5010387,126.9137134,보현약국,01
"경상북도 상주시 상산로 241 1층 101호 (남성동, 메디컬센터)",37848534,36.4124967,128.1591643,메디팜상주약국,01
인천광역시 미추홀구 소성로 133 (학익동),31835309,37.4433788,126.6636392,넘버원약국,01
경상북도 영천시 완산로 58 (완산동),37824406,35.9652971,128.9392286,선린약국,01
"경상북도 영천시 시장로 70-1, (완산동)",37849859,35.9632738,128.9379334,신세계약국,01
전라남도 나주시 빛가람로 677 104~105호 (빛가람동),36834416,35.0215108,126.7858398,굿모닝약국,01
대구광역시 수성구 수성로 329 (수성동1가),37849182,35.8548958,128.6133875,두배약국,01
경북 영천시 화남면 삼창리 849번지,5058207334,36.0592496,128.8912192,영천농협하나로마트화남점,03
"서울특별시 성동구 왕십리로 320-1, 1층 (도선동)",12858757,37.5623167,127.0341985,건강한약국,01
"서울특별시 서초구 서초대로 317 1층 (서초동, 건원빌딩)",12816388,37.49476,127.016321,푸른솔약국,01
파주시 조리읍 봉천로 49-2,1288300131,37.7437118,126.8061702,봉일천우체국,02
"경기도 화성시 향남읍 상신하길로298번길 7-27, 시티프라자 104호",31808140,37.1146439,126.9127298,시티약국,01
충청남도 천안시 동남구 충절로 29 (신부동),34806202,36.8164414,127.158541,새로나약국,01
경기도 구리시 검배로 80 (수택동),31849326,37.5953681,127.1469616,하이팜약국,01
경상북도 포항시 남구 동해면 일월로 137 103호 (동해그린상가),37811002,35.9881137,129.4481434,세화약국,01
경상남도 사천시 사천읍 진삼로 1493,38832640,35.0845982,128.0856436,현대약국,01
부산광역시 사하구 하신번영로167번길 31 (신평동),21810508,35.0974932,128.9582249,제민희보약국,01
경남 진주시 명석면 우수리 155번지,6138200248,35.2149932,128.0372973,진주북부농협하나로마트,03
인천광역시 남동구 인하로507번길 18 103호 (구월동),41850009,37.4440249,126.703264,구월우리약국,01
"경상북도 경주시 양남면 하서중앙길 36-2,",37851454,35.6741946,129.4632568,하늘약국,01
"대구광역시 북구 검단로 255 상가2동 102호 (검단동, 민들레아파트)",37800850,35.9159781,128.629022,검단약국,01
"서울특별시 서대문구 통일로 205-1, 1층 (영천동)",12861626,37.5713502,126.9608067,바다약국,01
진주시 문산읍 동부로609번길 10,6138301040,35.1691829,128.1669379,진주문산우체국,02
경기도 고양시 덕양구 호국로789번길 3 108호 중앙빌딩 (주교동),41817940,37.6567757,126.8359892,고운맘약국,01
제주특별자치도 제주시 애월읍 항몽로 26 ,6168302960,33.4811518,126.4048319,하귀우체국,02
"광주광역시 서구 경열로 153-3, (양동)",36825395,35.1547983,126.901643,서광주약국,01
울산광역시 남구 화합로194번길 15 (삼산동),38816199,35.5420867,129.3411712,보라약국,01
인천광역시 부평구 경인로 836 (부평동),41820959,37.4825986,126.7146133,건강온누리약국,01
강원도 철원군 근남면 하오재로2066-1,1278303232,38.2384737,127.4712849,철원근남우체국,02
부산광역시 금정구 중앙대로 1711 금정빌딩 1층 (부곡동),21842507,35.2371806,129.0918796,참좋은약국,01
"서울특별시 송파구 올림픽로35길 124 2동 410,411호 (신천동, 장미아파트 에이상가)",11847158,37.5174925,127.1009378,한결약국,01
"강원도 원주시 서원대로 383 1층 117, 118호 (개운동, 한신프라자)",32815697,37.331995,127.9485496,정문프라자약국,01
부산광역시 해운대구 재반로 116 102호 (재송동),21819769,35.1886558,129.1268403,이레약국,01
충북 영동군 황간면 영동황간로 1665,3028300267,36.2250563,127.9099491,황간우체국,02
경남 사천시 곤명면 경서대로 3401,6198200983,35.1302533,127.9764668,곤명농협하나로마트완사점,03
부산광역시 동래구 충렬대로 239 (수안동),21824916,35.2016461,129.0856268,수안메디컬약국,01
경기도 평택시 탄현로326번길 3 (지산동),41840259,37.0812429,127.0561111,이화약국,01
경기도 수원시 영통구 태장로 77 (망포동),31831931,37.2393222,127.0548379,푸른솔약국,01
"인천광역시 부평구 부평문화로 55 103호 (부평동, YD타워)",31834060,37.4942911,126.7222819,포도나무약국,01
부산광역시 남구 수영로 21 1층 (문현동),21839018,35.1372949,129.0700592,다솜약국,01
"서울특별시 영등포구 영등포로86길 14-1, (신길동)",12834289,37.5117839,126.9230091,새서울약국,01
부산광역시 동래구 여고북로 169 (온천동),21830118,35.2022459,129.0740926,선약국,01
인천광역시 연수구 비류대로 429 (연수동),31832318,37.4244284,126.6825247,최현수약국,01
충남 서천군 화양면 옥포길 8,3098301985,36.0383839,126.7822793,서천화양우체국,02
전라북도 완주군 이서면 이서로 59,35811617,35.8203981,127.0230497,하나로약국,01
"서울특별시 성북구 보문로 183 2층 (삼선동4가, 논현빌딩)",12861529,37.5901847,127.0147927,이층봄약국,01
충청북도 청주시 서원구 산남로70번길 3 산남메디프라자 107호 (산남동),33812691,36.6113348,127.4659943,산남열린약국,01
전라북도 완주군 봉동읍 둔산3로 70 70,35818964,,,해맑은약국,01
충청북도 충주시 주덕읍 주덕1길 2 2,33808040,36.9737176,127.7983166,중원당약국,01
"충청남도 부여군 부여읍 사비로 76-1,",34812377,36.2794285,126.9107404,유약국,01
"경기도 의정부시 상금로 33 107호 (금오동, 이롬프라자)",31828728,37.7577772,127.074451,햇살온누리약국,01
광주광역시 북구 면앙로32번길 1 (문흥동),36818267,35.1794334,126.9158397,21세기건강약국,01
인천광역시 중구 인항로 34 (신흥동3가),31884997,37.4571884,126.6340998,메디팜인하약국,01
경기도 안산시 상록구 건건로 122 2층 204일부호 (건건동),41831250,37.3116691,126.9050986,봄온누리약국,01
"경기도 고양시 일산서구 일현로 53 111호 (탄현동, 메디누리)",31884202,37.6919635,126.7630155,두리약국,01
부산광역시 남구 우암로 166 1층 (우암동),21838194,35.1246165,129.0787289,우암약국,01
충북 청주시 흥덕구 오송읍 오송생명로 206-7 206-7,3178204064,36.6300402,127.3312822,오송농협하나로마트의료단지점,03
"세종특별자치시 보듬3로 8-12, 101-1호 (도담동, 라온프라이빗시티1상가)",34836837,36.5133915,127.2587926,라온약국,01
충청북도 진천군 덕산면 시가로 10 1층 107호,33816972,36.9022144,127.5333729,진천연세약국,01
제주특별자치도 제주시 용문로 163 (용담이동),39801675,33.5092898,126.5107877,유명약국,01
"전라남도 목포시 옥암로 77-1, (옥암동)",36832103,34.8061287,126.4269251,우리힐약국,01
서울특별시 송파구 올림픽로 119 잠실파인애플상가 제3에이 12-1호 (잠실동),12862339,37.5120894,127.0842018,애플약국,01
"서울특별시 구로구 경인로 393-7, 일이삼전자타운 2동 1층 120호 (고척동)",11874279,37.4974484,126.8630394,해솔약국,01
충청남도 천안시 동남구 병천면 아우내순대길 38 1층,34834419,36.7609538,127.2990628,솔약국,01
울산광역시 동구 방어진순환도로 645 (일산동),38834537,35.4994224,129.4280974,둘리약국,01
서울특별시 중구 동호로33길 5 (오장동),11818379,37.5653935,127.0018996,금성약국,01
"경상북도 봉화군 봉화읍 신시장1길 3-13, 3",37802976,36.8907796,128.7355205,봉화경북약국,01
대전광역시 서구 청사로 281 120호 (둔산동),34826084,36.3615949,127.393822,상록약국,01
광주광역시 서구 화정로 259 105호 (농성동),36826987,35.1481047,126.8849887,올바른약국,01
제주특별자치도 제주시 노연로 90 1층 (연동),39803805,33.4857129,126.489711,자연약국,01
충청북도 제천시 의병대로 107 (남천동),33812551,37.1356555,128.2128487,행복한약국,01
"서울특별시 강남구 선릉로 225 313호 (도곡동, 도곡렉슬상가)",12806498,37.4953009,127.0527051,사랑플러스약국,01
서울특별시 성북구 보국문로16길 31 (정릉동),11889276,37.6114223,127.0091051,태평양약국,01
"경기도 김포시 감정로38번길 16 128동 116,117,119호 (감정동, 푸른마을상가)",31841023,37.6195762,126.6992363,신안온누리약국,01
"경기도 과천시 별양로 28 (원문동, 래미안 슈르 4상가 B동 3078호~3079호)",41818997,37.4211855,126.9912426,상우약국,01
인천광역시 강화군 강화읍 강화대로 431,31825648,37.747159,126.4836372,감초약국,01
경북 김천시 덕곡동 993-1,5108207001,36.1164084,128.1526407,김천축협덕곡하나로마트,03
강원도 원주시 시청로 84 (무실동),32812876,37.3363633,127.9280529,수약국,01
대전광역시 서구 대덕대로 226 (둔산동),34822267,36.3526605,127.3798434,태양약국,01
전남 강진군 신전면 용월리 731의24,4148200919,34.5159474,126.7224328,강진도암농협하나로마트 신전점,03
"경기도 고양시 일산서구 고봉로 291 (일산동, 에이스스타디움302-1)",41812271,37.6852975,126.7772742,약손약국,01
전라북도 전주시 완산구 당산로 50 1층 (서신동),35817178,35.8320075,127.1136828,전주대형약국,01
인천광역시 미추홀구 인하로 273 (주안동),31868240,37.4483381,126.6785536,신기메디칼약국,01
서울특별시 양천구 화곡로 51 (신월동),11853042,37.5395764,126.827513,샘약국,01
충남 부여군 세도면 간대리 419의19,3088206020,36.1685501,126.9453524,세도농협하나로마트,03
"인천광역시 미추홀구 매소홀로 340 209호 (학익동, 풍림아이원아파트상가)",31893163,37.4413136,126.659078,건강플러스약국,01
부산광역시 북구 금곡대로 125 (덕천동),21823146,35.2205505,129.0075381,연암약국,01
"인천광역시 연수구 독배로 42 (옥련동, 해창빌딩)",41817478,37.4245086,126.6449188,미래팜약국,01
광주광역시 북구 갈마로 47 (두암동),36818500,35.1620207,126.935717,옵티마하나로약국,01
경남 거창군 거창읍 주곡로 226-12,6118201601,35.7151505,127.9184681,거창농협하나로마트월천점,03
"서울특별시 강남구 삼성로 707 1층 (청담동, 청담빌딩)",12841625,37.5192717,127.0496171,타조약국,01
경기도 광명시 안현로 52 중앙상가 108호 (하안동),31830757,37.4656048,126.8774184,문화약국,01
대구광역시 남구 명덕로 322 1층 (이천동),37849590,35.8548499,128.6051607,동아약국,01
부산광역시 사상구 사상로 481 (모라동),21805326,35.1875038,128.9872814,모라명성약국,01
경기도 부천시 원미로 141 (원미동),31813500,37.4952168,126.7914296,천지약국,01
충남 공주시 사곡면 산넘어길 6-1,3078300336,36.5014295,127.0255023,사곡우체국,02
대구광역시 북구 학정로 439 칠곡메가타운 3층 303호 (동천동),37848020,35.9439233,128.5633244,태약국,01
대구광역시 북구 연암로22길 1 1층 (산격동),37850091,35.894177,128.5944775,민들레약국,01
경기도 성남시 중원구 산성대로 356 1층 (중앙동),31889727,37.4440238,127.15599,하늘샘약국,01
"대구광역시 중구 달성로 54 1, 2층 (동산동)",37801538,35.8698165,128.5824274,열린약국,01
충청남도 공주시 웅진로 203 (산성동),34802509,36.4584393,127.1246798,중앙약국,01
경기도 용인시 처인구 고림로 88 102호 (고림동),31885284,37.2409647,127.21523,베드로약국,01
부산광역시 금정구 수림로 55 1층 (장전동),21841764,35.2398076,129.0862952,해인약국,01
서울특별시 강남구 봉은사로 469 1층 (삼성동),12861294,37.5126016,127.0508054,삼성도담약국,01
강원 양양군 강현면 물치리 66-9번지,2278201861,38.154089,128.6071493,강현농협하나로마트본점,03
경기도 안산시 상록구 건건1길 38 1층 (건건동),31822690,37.3038055,126.9017218,녹십자약국,01
"서울특별시 서초구 서초대로 310 지하1층 (서초동, 소망빌딩)",12839167,37.4939941,127.0155606,서초온누리약국,01
대구광역시 달서구 월배로 233 (상인동),37808257,35.8194913,128.5387657,새밝은약국,01
강원도 춘천시 금강로 35 (소양로3가),32809298,37.8813273,127.7263552,한사랑약국,01
"강원도 고성군 거진읍 거진길 22-1,",32804067,38.4458684,128.4543437,십자약국,01
"대구광역시 달성군 화원읍 비슬로 2579-4,",37832611,35.8039308,128.4990183,우리온누리약국,01
전북 순창군 풍산면 용내리291,4078204799,35.3377044,127.1399545,순창농협하나로마트풍산점,03
부산광역시 사상구 사상로 236 1층 일부 (괘법동),21842108,35.1659571,128.9830083,다사랑온누리약국,01
경기도 고양시 덕양구 혜음로 36 (고양동),41850220,37.7036503,126.90223,고양새물약국,01
대전광역시 서구 배재로 196 평강빌딩 1층 (도마동),34842802,36.3259115,127.3706691,별약국,01
제주특별자치도 제주시 도령로 74 (연동),39804593,33.4896982,126.4862975,신한온누리약국,01
"서울특별시 송파구 올림픽로 119 3B5호 (잠실동, 잠실파인애플상가)",12857025,37.5120894,127.0842018,엘스3층 온누리약국,01
서울특별시 송파구 강동대로 67 (풍납동),12847488,37.5269894,127.1153097,가장큰현대아산약국,01
인천광역시 계양구 경명대로1114번길 21 (계산동),41839978,37.5416278,126.7323522,해맑은약국,01
"경기도 파주시 후곡로 1 (금촌동, 경기빌딩)",31828108,37.7573996,126.7739376,하나로약국,01
경기도 포천시 소흘읍 호국로 433 1층,41850386,37.8117802,127.1343392,우리약국,01
"서울특별시 동작구 상도로 407-5, (상도동, 삼호아파트 상가 109호)",11824620,37.4934323,126.9569997,교약국,01
광주광역시 광산구 첨단중앙로170번길 64 1층 (쌍암동),36832529,35.2204275,126.8454085,첨단광장약국,01
대전광역시 유성구 유성대로 770 (장대동),34817191,36.3607622,127.3361746,행복한약국,01
전라북도 완주군 고산면 고산로 90,35807121,35.974752,127.2067319,십자약국,01
경북 고령군 운수면 잣밭길 7 ,5038300803,35.769275,128.290825,고령운수우체국,02
전북 남원시 요천로 817,4078300198,35.3780731,127.3213977,남원주생우체국,02
인천광역시 남동구 호구포로 796 1층 (구월동),41818202,37.4533768,126.7193815,이화약국,01
경남 고성군 고성읍 송학로113번길 10,6128205051,34.9781929,128.32215,고성농협하나로마트서부점,03
강원도 정선군 정선읍 정선로 1350 1층,32816952,37.3796089,128.6640004,중앙약국,01
서울특별시 은평구 진흥로 97 1층 (역촌동),11868333,37.6055838,126.922188,오온누리약국,01
파주시 파주읍 술이홀로 443,1288301746,37.8291503,126.8361191,파주연풍우체국,02
서울특별시 성동구 왕십리로 339 (하왕십리동),12808075,37.5629122,127.0321022,우인약국,01
"경기도 시흥시 중심상가2길 2 (정왕동, 씨드랜드프라자)",41837665,37.3458697,126.7358297,시화메디칼약국,01
충청북도 영동군 영동읍 중앙로3길 6 6,33810788,36.17446,127.7772054,소원약국,01
"서울특별시 강동구 양재대로 1579 2층 (천호동, 한영빌딩)",12818534,37.5465618,127.1428414,화인약국,01
"부산광역시 해운대구 대천로 187 101호 (좌동, 화목아파트상가)",21827320,35.1718872,129.1787616,신원약국,01
서울특별시 중랑구 면목로 224 (면목동),11841460,37.5729052,127.0842638,신강약국,01
내면 창촌로 45-5,2238303336,37.7723391,128.3891892,창촌우체국,02
전라북도 전주시 완산구 용머리로 104 (효자동1가),35821850,35.8058641,127.1215186,방가온누리약국,01
경북 영천시 북안면 임포역길 91,5058301604,35.9176822,129.0106114,영천북안우체국,02
경상북도 경산시 하양읍 하양로 100 ,5158301203,35.913067,128.8185866,경산하양우체국,02
"서울특별시 강서구 강서로 341 창대교회 1층 2호,3호 (내발산동)",12865923,37.5563484,126.837233,바로약국,01
경북 영주시 단산면 옥대리 169-7,5128206537,36.9503455,128.6177027,영주농협 단산하나로마트,03
"경기도 안양시 동안구 관악대로 133 161동 301-3호 (비산동, 삼성래미안아파트상가)",31836399,37.3994214,126.9386655,세계로약국,01
서울특별시 동대문구 왕산로 20 1층 (신설동),11861070,37.5761783,127.0258137,중앙약국,01
전라북도 전주시 완산구 안행2길 13-1 (삼천동1가),35820578,35.8012766,127.1293733,자연생한약국,01
충남 당진시 우강면 면천로 1711 우강농협 하나로마트,1508200198,36.8106042,126.7743133,우강농협 하나로마트,03
서울특별시 성동구 독서당로 302 1층 (금호동4가),11880228,37.5476208,127.0227221,금호프라자약국,01
"강원도 인제군 남면 신남로58번길 7-1,",32804032,37.9677753,128.0803947,새서울약국,01
서울특별시 동작구 장승배기로 110 (노량진동),12843393,37.5073526,126.9401654,맑은샘약국,01
"대구광역시 달서구 당산로 39 (본리동,상가 204호)",37841653,35.8408832,128.5443845,성당대성약국,01
경기도 여주시 가남읍 태평로 25,41820801,37.2030226,127.5461085,왕약국,01
대구광역시 수성구 지범로 59 (지산동),37823124,35.8259853,128.6294155,동아약국,01
경기도 수원시 팔달구 중부대로 80 인계한양수자인 상가 3동 1층 30호 (인계동),41847326,37.275796,127.0247994,한양다온약국,01
대구광역시 수성구 달구벌대로 3210 (신매동),37838202,35.8396349,128.7076627,시지연합약국,01
"서울특별시 서초구 남부순환로 2585 25호 (서초동, 양재역)",12859591,37.4839347,127.0345442,뿌리본약국,01
광주광역시 북구 설죽로 345 (매곡동),36818755,35.1903166,126.8988508,코끼리약국,01
경상남도 남해군 남면 남서대로 784,38820480,34.7714417,127.8862625,보령약국,01
경상남도 창원시 진해구 안골로 344 (용원동),38817675,35.1016513,128.8101896,토마토약국,01
대구광역시 수성구 지범로 252 (범물동),37801708,35.8173463,128.6447981,한약국,01
"서울특별시 노원구 동일로 1401 1층 (상계동, 상아빌딩)",11843977,37.6535824,127.0604045,상아온누리약국,01
전라북도 전주시 완산구 효자로 169 (효자동3가),35814071,35.8193818,127.1039388,반암약국,01
"인천광역시 남동구 남동대로 772 1층 2호 (구월동, 동성빌딩)",41812913,37.4511704,126.7082545,중앙판도라약국,01
인천광역시 계양구 장제로 676 1층 102호 (작전동),41846664,37.5282655,126.73371,햇살약국,01
경상남도 양산시 삼일로 67 (북부동),38819449,35.3438949,129.0348231,시민약국,01
대구광역시 중구 큰장로 132 (대신동),37803476,35.8699342,128.5796376,서문약국,01
경상남도 창원시 성산구 삼정자로43번길 8 성주빌딩 1층 103호 (성주동),38832046,35.1987709,128.7110238,건강일등약국,01
서울특별시 광진구 능동로10길 109 (자양동),12855235,37.5355221,127.0754195,기분좋은한약국,01
전라북도 익산시 궁동로 93 (어양동),35814292,35.9623112,126.9814148,한사랑약국,01
"부산광역시 북구 백양대로 1112-1, (구포동)",21827524,35.2036916,129.000553,세민약국,01
전남 진도군 조도면 조도면 창유리 582,4158211817,,,서진도농협하나로마트조도점,03
대구광역시 달서구 달구벌대로251길 33 (이곡동),37841599,35.8551558,128.5047125,현샘약국,01
서울특별시 성북구 삼선교로 14 (삼선동1가),11871792,37.5875508,127.0073805,인정온누리약국,01
전북 익산시 오산면 평동로 313,4038203594,35.9383849,126.9152337,익산오산우체국,02
전라남도 순천시 이수로 315 1층 (조례동),36826251,34.9538071,127.5181705,세브란스약국,01
서울특별시 성북구 동소문로47길 12 1층 (길음동),12867519,37.6089164,127.0290607,호수온누리약국,01
대구광역시 중구 중앙대로 366 1층 102호 (덕산동),37850881,35.866117,128.593836,반월당중앙약국,01
"서울특별시 동작구 보라매로3길 29 3층 306호 (신대방동, 해태보라매타워)",12860948,37.491405,126.925186,해태사랑약국,01
서울특별시 강남구 역삼로17길 64 1층 3호 (역삼동),12861103,37.4988038,127.0366283,역삼생생약국,01
"경기도 수원시 장안구 정조로 941 3층 319호 (영화동, 동성영화타운)",31859941,37.2912926,127.0119199,한솔약국,01
경상북도 의성군 춘산면 옥정2길 7 ,5098301324,36.2383126,128.8153313,의성춘산우체국,02
경상북도 안동시 경동로 653 (남문동),37850113,36.5633722,128.7294341,남문약국,01
서울특별시 강서구 강서로 251 세란빌딩 103호 (내발산동),12865702,37.5481315,126.8360328,세란온누리약국,01
경상북도 의성군 의성읍 문소3길 103 1층,37849476,36.3550561,128.693901,늘푸른약국,01
경북 칠곡군 지천면 신리 408-1 신리408-1,5048202748,35.956604,128.4893181,지천농협하나로마트,03
"부산광역시 부산진구 백양관문로77번길 42 2층 209호 (개금동, 동원화인패밀리타운)",21817715,35.1655936,129.027847,영생약국,01
서울특별시 관악구 신원로 16 (신림동),11878827,37.4807478,126.927945,튼튼약국,01
"경기도 의정부시 회룡로 221 104호 (신곡동, 장암주공5단지상가)",41818318,37.7276938,127.0580042,덕영약국,01
경기도 고양시 덕양구 행당로 35 (행신동),31852840,37.6194076,126.8286566,행신약국,01
인천광역시 미추홀구 낙섬중로38번길 2 1층 (용현동),31877591,37.4514546,126.6375552,천사약국,01
서울특별시 강남구 도곡로 442 105호 (대치동),11848537,37.4979855,127.0588484,나리약국,01
대구광역시 중구 명덕로 59 (남산동),37825097,35.8590276,128.5775126,늘푸른온누리약국,01
"서울특별시 중구 장충단로13길 7 401호 (을지로6가, 을호빌딩)",12843725,37.5677497,127.0081966,힘찬약국,01
"경상북도 경산시 진량읍 황제1길 86-25,",37848828,35.8586206,128.8180993,손약국,01
서울특별시 송파구 석촌호수로 142 102호 (삼전동),12865397,37.5069644,127.0927695,행복한우리들약국,01
"전라북도 김제시 동서로 244-1, (요촌동)",35815086,35.8032169,126.8941213,우리약국,01
"인천광역시 남동구 호구포로 794-1, 1층 (구월동)",41842766,37.4532253,126.7193693,모래내시장온누리약국,01
"경상북도 안동시 풍천면 시북정길 8-2, 8",37814028,36.5426267,128.4671422,영춘약국,01
"서울특별시 구로구 중앙로 60 (고척동, 강산메디칼프라자)",12860671,37.5031158,126.862572,신도약국,01
전라북도 군산시 월명로 260 (수송동),35811838,35.9671887,126.7161358,비타민약국,01
"대구광역시 북구 침산남로 154 (침산동, 103호)",37834142,35.8878369,128.5922591,메이저온누리약국,01
광주광역시 서구 죽봉대로 61 2층 (화정동),36818151,35.1588082,126.8819828,미소그린약국,01
서울특별시 강동구 천호대로 1153 1층 (길동),11879301,37.534089,127.139657,고은온누리약국,01
충청남도 서산시 대사동1로 16 (동문동),34807268,36.783195,126.454217,오성약국,01
서울특별시 성북구 성북로2길 8 1층 (동소문동1가),11842041,37.5890061,127.0063992,옵티마대우미약국,01
서울특별시 서초구 고무래로 18 1층 (반포동),11829958,37.5029914,127.0104564,티파니약국,01
제주특별자치도 제주시 조천읍 신북로 530,39801306,33.5415053,126.6663595,신한당약국,01
전남 장흥군 장동면 북교리 7-2,4158211971,34.7490625,126.9951763,용두농협하나로마트장동점,03
서울특별시 강북구 도봉로67길 13 (미아동),11817771,37.6306127,127.0235408,직영약국,01
대구광역시 수성구 달구벌대로 2295 (수성동4가),37833324,35.8601033,128.613582,늘사랑약국,01
경상북도 안동시 경동로 673 (남부동),37814397,36.5633218,128.7315878,한미약국,01
경기 이천시 율면 고당로 110 ,1268305047,37.0925669,127.545051,율면우체국,02
경기도 부천시 부천로 112 (원미동),31886256,37.4942093,126.7853227,천사약국,01
경기도 안산시 상록구 샘골로 150 동성빌딩 205호 (본오동),41842596,37.2972185,126.8633726,365편한약국,01
경상북도 의성군 의성읍 중앙길 66,37818511,36.3502223,128.6970745,영남약국,01
파주시 탄현면 법흥로 13,1418300172,37.770625,126.70035,통일동산우체국,02
전남 신안군 암태면 단고리 92의3,4118206442,34.82923,126.1121966,신안농협하나로마트,03
"서울특별시 용산구 한강대로 259 109호 (갈월동, 고려에이트리움)",12828246,37.54159,126.9724256,미라클약국,01
대구광역시 북구 침산로 144 1층 (침산동),37846337,35.8892516,128.5915046,한우리약국,01
"충청남도 서천군 서천읍 충절로41번길 5-5,",34829873,36.0758067,126.6870171,서천우리약국,01
"서울특별시 은평구 진관4로 17 820동 1층 113호 (진관동, 은평뉴타운상림마을)",12857572,37.6440574,126.9227324,햇살약국,01
경기도 오산시 대원로 3 (오산동),31894844,37.1465979,127.0688415,명약국,01
광주광역시 북구 천지인로173번길 34 (문흥동),36833657,35.1858354,126.918653,예담한약국,01
"전라북도 남원시 동문로 40 (동충동, 한겨레약국)",35812478,35.4091657,127.3860841,새한겨레약국,01
서울특별시 서대문구 응암로 64 1층 (북가좌동),12861731,37.5787223,126.9107096,세빛약국,01
"경기도 평택시 중앙로 13-2, (통복동)",31844162,36.9955293,127.0847475,메디칼세계로약국,01
"경기도 구리시 건원대로34번길 25 3층 (인창동, 신아월드코아)",31870830,37.6045869,127.1417628,신아약국,01
충청남도 아산시 배방읍 고속철대로 71 지하1층 02호,34833625,36.7906967,127.1075567,미즈약국,01
제주특별자치도 제주시 동광로 129 (일도이동),39800458,33.5078673,126.5403598,화신온누리약국,01
울산광역시 중구 명륜로 17 1층 (태화동),38817489,35.5539482,129.3086673,미소열린약국,01
"서울특별시 구로구 고척로 123-1, (개봉동)",12848697,37.5022267,126.8478161,개봉지예당약국,01
"경기도 성남시 중원구 자혜로 73-2, (은행동)",31816282,37.451353,127.167629,생문약국,01
서울특별시 은평구 통일로 843 (대조동),11849223,37.6184302,126.9213277,영창당약국,01
인천광역시 남동구 만수로 63 만수 쎈타 플라자 101-2호 (만수동),41836758,37.4614074,126.7348375,은하약국,01
경기도 군포시 금산로 92,31897754,37.37025,126.9372583,담주약국,01
"경기도 성남시 분당구 백현로101번길 25 1층 (수내동, 수내프라자)",31877885,37.3780599,127.1133149,초림약국,01
대구광역시 달성군 유가면 테크노상업로 112,37848887,35.6932535,128.4619239,포산약국,01
전라북도 전주시 덕진구 안덕원로 159 (인후동2가),35817836,35.8335578,127.1453282,모래내녹십자약국,01
"부산광역시 해운대구 좌동순환로 301 1층 (좌동, 금강빌딩)",21805580,35.1691853,129.1832673,파랑새약국,01
경상북도 영천시 대창면 금창로 691,37818139,35.8748081,128.8971852,대구약국,01
서울특별시 동대문구 망우로 78 1층 (휘경동),11820217,37.5897637,127.0620255,우리들위생약국,01
"서울특별시 서초구 강남대로10길 60-1, 101호 (양재동)",12851949,37.4697225,127.0425255,신원약국,01
전남 고흥군 두원면학곡리 2-5,4168212503,34.6452251,127.2744432,두원농협하나로마트본점,03
"경기도 이천시 중리천로 76 4층 411호 (중리동, 라온팰리스)",41837797,37.2785332,127.4458781,라온약국,01
서울특별시 서대문구 통일로 460 2층 (홍제동),12869554,37.5896138,126.9434935,홍제 오늘약국,01
경상북도 구미시 신시로 71 (형곡동),37839284,36.114293,128.3386819,다인약국,01
경북 예천군 보문면 158-2,5128201982,,,예천농협하나로마트보문점,03
서울특별시 중랑구 겸재로9길 53 1층 (면목동),11839759,37.5888252,127.0781333,일월약국,01
"전라남도 무안군 청계면 청계중앙길 3-1,",36810843,34.9099119,126.4295116,청계약국,01
서울특별시 광진구 뚝섬로 499 (자양동),11889918,37.5361408,127.0658387,웰빙서울온누리약국,01
강원도 철원군 서면 와수로 162 우리약국,32813066,38.2379235,127.4379994,우리약국,01
충청북도 제천시 용두천로 98 (남천동),33808325,37.136057,128.2121,제천종로약국,01
부산광역시 동구 고관로 29 1층 (초량동),21841471,35.1221128,129.042445,참좋은약국,01
"서울특별시 서초구 강남대로 375 104호 (서초동, 서초현대타워아파트)",12862631,37.4965012,127.0279537,초이스약국,01
"경기도 용인시 기흥구 한보라1로 6 106호 (보라동, 제일프라자)",31817653,37.2542805,127.1092535,보라온누리약국,01
대구광역시 동구 송라로 30 (신천동),37802232,35.8700554,128.6202977,한미약국,01
"서울특별시 관악구 신림로 158 1층 1호 (신림동, 영광빌딩)",12816191,37.4729331,126.9338947,대명약국,01
"서울특별시 양천구 신목로 102 (목동, 대경프라자)",12857211,37.5235719,126.8757887,옵티마자연약국,01
충청남도 공주시 계룡면 영규대사로 486,34829288,36.3600552,127.142577,계룡약국,01
"서울특별시 서초구 서초대로38길 12 지하2층 (서초동, 마제스타시티,힐스테이트서리풀)",12861201,37.4902698,127.0051245,서초늘봄약국,01
경기도 성남시 수정구 위례광장로 310 우성트램타워 B동 104호 (창곡동),41836090,37.4727085,127.1429284,위례다나약국,01
전북 무주군 적상면 사천리 323-2,4028214521,35.9436929,127.659388,무주농협하나로마트적상점,03
울산광역시 중구 번영로 582 (남외동),38830281,35.5686737,129.3456073,비타민약국,01
"광주광역시 서구 상무자유로 181-7, 1층 (치평동)",36819271,35.1527376,126.8538829,상무그린약국,01
"경상남도 창원시 마산회원구 내서읍 호원로 361-2, (코오롱하늘채1차아파트)",38803119,35.2657022,128.5255621,코오롱약국,01
부산광역시 남구 동명로164번길 100 (용호동),21806110,35.1146474,129.1137123,은성약국,01
"서울특별시 동작구 만양로 19 1층 (노량진동, 신동아리버파크아파트)",12854336,37.5077974,126.9447636,정다운약국,01
경상북도 성주군 성주읍 시장길 16,37848046,35.9168936,128.2858176,사랑약국,01
"경기도 하남시 대청로 119-1, 101호 (창우동, 부영아파트상가동)",31846629,37.5396741,127.2261354,부영약국,01
강원도 춘천시 낙원길33번길 2 (낙원동),32813236,37.8795053,127.7256384,비타민약국,01
서울특별시 영등포구 영중로24길 3 영오빌딩 101호 (영등포동5가),12863475,37.5223122,126.9056204,왕온누리약국,01
충청남도 서산시 시장6로 5 (동문동),34835300,36.7802183,126.4577039,한마음약국,01
제주 제주시 연삼로 113 (오라삼동),6168206940,33.4937633,126.5047699,제주시농협하나로마트오라점,03
"전라남도 여수시 신월로 788-1, (봉강동)",36816884,34.7388632,127.7254098,삼성약국,01
전라남도 고흥군 고흥읍 여산당촌길 11,36815837,34.6074215,127.2819115,큰종로약국,01
세종특별자치시 달빛로 47 1층 104호 (종촌동),34829610,36.5031568,127.2499068,세종달빛약국,01
충청남도 금산군 금산읍 금산로 1483 1483,34831096,,,고려약국,01
울산광역시 남구 수암로 115 (신정동),38801272,35.528646,129.3200716,모범약국,01
광주광역시 남구 봉선중앙로 139 1층 (주월동),36827061,35.1335254,126.910204,참약국,01
서울특별시 동대문구 장한로 12 (장안동),11889128,37.5625085,127.0656901,조령약국,01
서울특별시 서대문구 응암로 100 (북가좌동),11847662,37.5815377,126.9128594,연세메디칼약국,01
전라남도 곡성군 오산면 오산로 593 ,4088302447,35.236535,127.121988,곡성오산우체국,02
"경기도 오산시 운암로 92 가상가동 107호 (부산동, 오산운암3단지주공아파트)",31881335,37.1544274,127.0778311,하이팜약국,01
부산광역시 수영구 광안해변로 95 비치아파트 에이상가 105호 (남천동),21800375,35.143488,129.1147069,신혜약국,01
경상남도 진주시 범골로60번길 16 102호 (충무공동),38833298,35.1697704,128.1324029,아름약국,01
전라북도 전주시 덕진구 건산로 222 (인후동1가),35807300,35.8337357,127.1615847,아중종로약국,01
경상북도 안동시 대안로 85 (광석동),37814044,36.5653693,128.7222856,태화지성약국,01
충남 서산시 성연면 두치로 19-1 성연농협 하나로마트,3168205338,36.8370427,126.4636294,성연농협하나로마트,03
"대구광역시 수성구 청수로 235 2층 204-2호 (황금동, 캐슬골드파크 2단지)",37846485,35.8418807,128.6340169,행복한약국,01
인천광역시 미추홀구 아암대로 87 (용현동),31865852,37.4538482,126.6336356,서해약국,01
경기도 수원시 권선구 금호로 231 (구운동),41807952,37.2756666,126.975216,상록수약국,01
서울특별시 도봉구 도봉로 678 홈플러스데스코㈜방학점 지하2층 (방학동),12869597,37.6648878,127.043666,미소약국,01
"경상남도 창원시 진해구 충장로 136-1, (충무동)",38805952,35.1518297,128.6668424,진해일등약국,01
전라북도 임실군 오수면 오수로 165 (광혜당약국),35802481,35.5389186,127.32686,광혜당약국,01
경기도 성남시 분당구 백현로101번길 16 대덕프라자 211호일부 (수내동),41813341,37.3769024,127.1127131,건강온누리약국,01
충남 보령시 미산면 도화담리122 122,3138203364,,,웅천농협도화담하나로마트,03
전라남도 장성군 북이면 백양로 8,36834904,35.4302953,126.8094154,민약국,01
대전광역시 서구 둔산남로 46 (둔산동),34805141,36.3487003,127.3825798,은하수약국,01
부산광역시 중구 대영로 219 (영주동),21827079,35.1123557,129.0347719,영주약국,01
"경기도 성남시 분당구 분당로263번길 39 210호 (서현동, 레이디파크빌딩)",41835344,37.3720189,127.140177,분당이층약국,01
서울특별시 중구 마장로9길 34 1층 (황학동),12841293,37.5698987,127.0197219,알파약국,01
경상북도 경산시 경안로 191 (중방동),37811894,35.8245052,128.7368409,오거리약국,01
충남 공주시 이인면 검바위로 230,3078300210,36.3624001,127.0644463,이인우체국,02
경상북도 영주시 봉화로 2 (상망동),37843303,36.838616,128.6519471,평화약국,01
충청남도 태안군 태안읍 동백로 301,34825924,36.7484316,126.3035634,산들약국,01
충청남도 부여군 부여읍 사비로99번길 5,34820388,36.2814663,126.9100629,장수약국,01
서울특별시 강남구 역삼로 243 1층 (역삼동),11815701,37.497866,127.0428326,아로마약국,01
"대구광역시 수성구 교학로11길 46 302동 104호 (만촌동, 만촌1차우방상가)",37811312,35.8494637,128.6547495,사과나무약국,01
"서울특별시 서초구 반포대로 287 311호 (반포동, 래미안퍼스티지중심상가)",11884835,37.5043455,127.0010844,3층한사랑약국,01
"대전광역시 중구 중앙로 134-1, (대흥동)",34803211,36.3280099,127.4247266,보문당약국,01
"인천광역시 남동구 경인로 520 B04-1호 (간석동, 탑프라자빌딩)",41808215,37.460777,126.6970709,탑프라자약국,01
"경기도 안양시 동안구 평촌대로217번길 45 112호 (호계동, G2빌딩)",41819012,37.3899764,126.953531,원광한약국,01
서울특별시 노원구 한글비석로 77 한성여객(주) (하계동),11830115,37.6375293,127.0704785,무궁화약국,01
부산광역시 사상구 모라로110번길 96 (모라동),21801622,35.1841879,128.9960649,보문약국,01
"서울특별시 구로구 경인로 661 219동 237호 (신도림동, 신도림1차푸르지오)",12835714,37.5095178,126.8877039,건강샘온누리약국,01
전북 부안군 줄포면 줄포리549-1,4058203737,35.5886896,126.6785525,남부안농협하나로마트줄포점,03
부산광역시 부산진구 새싹로 24 1층 (부전동),21841080,35.1599765,129.0576069,새싹약국,01
경기도 수원시 팔달구 정조로 784 (팔달로2가),31803164,37.2779776,127.0170104,옵티마청운약국,01
경남 밀양시 부북면 전사포리 301-22,6158201485,35.4738277,128.7383057,부북농협하나로마트사포점,03
"대구광역시 달서구 월배로 199-3, (상인동)",37843443,35.818503,128.5351647,정다운약국,01
"서울특별시 강남구 개포로 303 지하1층 16호 (개포동, 현대1차아파트)",11803037,37.4824625,127.0544858,개포메디칼약국,01
충남 홍성군 홍북면 청사로150번길 19-13 구항농협농축산물유통센터,3108206703,36.6585005,126.6804896,구항농협농축산물유통센터,03
경기도 의정부시 흥선로 137 (의정부동),41829972,37.7416923,127.0425276,큰길약국,01
대구광역시 달성군 화원읍 화암로 76 ,5148302757,35.7976517,128.4970006,대구명곡우체국,02
"경기도 용인시 기흥구 사은로126번길 6 106호 (보라동, 신원프라자)",41803591,37.2551886,127.1181898,신명약국,01
충청남도 당진시 송악읍 송악로 662 ,3118301182,36.9386346,126.743775,중흥우체국,02
경기도 고양시 일산동구 무궁화로 39 삼라마이다스 2층 209호 (장항동),41846141,37.6634852,126.7685053,더사랑약국,01
전라남도 광양시 진상면 학연로 10 1층,36826421,35.0191321,127.7194046,하나약국,01
전북 고창군 공음면 칠암리 604-1,4048207123,35.378741,126.5132862,선운산농협하나로마트공음점,03
충청남도 당진시 합덕읍 합덕시장로 176,34823425,36.8082121,126.7741864,현대약국,01
대구광역시 달서구 월배로 414 (송현동),37806971,35.831002,128.5521057,영남제일약국,01
부산광역시 연제구 종합운동장로 24 (거제동),21841624,35.1927199,129.0648178,사계절한약국,01
전라북도 전주시 덕진구 아중로 149 (인후동1가),35809965,35.8263099,127.1658619,조약국,01
서울특별시 송파구 백제고분로 349 자재백화점 1층 (석촌동),12865991,37.5045422,127.1049639,다정약국,01
서울특별시 서대문구 모래내로 364 (홍은동),11887541,37.5818916,126.9365279,가까운약국,01
전남 해남군 해남읍 고도리 106-32,4158207045,34.5674341,126.5956927,해남진도축협하나로마트고도점,03
광주광역시 북구 군왕로203번길 1 1층 (각화동),36815543,35.1789292,126.9350517,온누리한길약국,01
대전광역시 유성구 자운로97번길 410 1층 (신봉동),34800891,36.4140195,127.3375981,두리약국,01
전라북도 전주시 덕진구 건지2길 17 (금암동),35819341,35.8448217,127.1409426,제일약국,01
"경기도 군포시 고산로677번길 40 104호 (산본동, 대현프라자)",31880690,37.3728467,126.9306086,우리들약국,01
경상남도 창원시 마산회원구 내서읍 삼계4길 34,38834731,35.2336261,128.5038924,새삼성약국,01
"서울특별시 송파구 강동대로 74 잠실올림픽아이파크상가 1층 108호, 지층 B103호 (풍납동)",11802006,37.5264402,127.1149319,가까운이화약국,01
경북 김천시 조마면 강곡리 152-2,5108200309,36.0360978,128.0997635,조마농협하나로마트본점,03
"전라남도 여수시 중앙로 61-1, (교동)",36829358,34.7403151,127.7343953,세명약국,01
부산광역시 북구 사상로 599 (구포동),21832625,35.1976682,128.9906447,바른약국,01
제주 제주시 조천읍 함와로 40 (함덕농협종합타운),6168222066,33.5365661,126.6749122,함덕농협하나로마트,03
"서울특별시 강남구 삼성로 150 110호 (대치동, 한보미도종합상가)",11802863,37.4927978,127.0662067,온누리구인당약국,01
"경기도 평택시 조개터로42번길 60-1, (합정동)",31853595,36.9901097,127.1061081,합정약국,01
경기도 수원시 팔달구 정조로 776 (팔달로3가),31820948,37.277334,127.0173547,도매당약국,01
경기도 수원시 영통구 센트럴타운로 94 앤에스코어빌딩 106호 (이의동),41834186,37.2919668,127.0509055,광교대림약국,01
"경기도 수원시 팔달구 중부대로 94 1층 (인계동, 성웅빌딩)",31847889,37.2765475,127.0269673,가톨릭약국,01
광주광역시 광산구 하남대로 92 103호 (하남동),36804720,35.1799636,126.8036658,한누리약국,01
"충청남도 천안시 동남구 풍세로 1008 (청수동, 진정형외과)",34816658,36.7971667,127.1529991,조은약국,01
경기도 남양주시 경춘로1308번길 2 (평내동),41808185,37.650066,127.2380164,평내온누리약국,01
광주광역시 북구 동문대로 191 (두암동),36805637,35.1795972,126.9293769,메디팜대암약국,01
"서울특별시 강북구 오패산로52길 51 지층 1호 (미아동, 화랑빌라)",11856700,37.6252622,127.0322303,생수당약국,01
"서울특별시 용산구 후암로 43-2, 1층 (후암동)",12835676,37.5497998,126.9772828,다나약국,01
충남 아산시 음봉면 삼성로 561 음봉농협산동지점하나로마트,3128204657,36.8296236,127.0930616,음봉농협마트산동점,03
전북 부안군 동진면 봉황리 303-2,4058203741,35.7513614,126.7407594,부안농협하나로마트동진점,03
"울산광역시 남구 삼산로 257 (달동, 금양빌딩)",38822300,35.5391834,129.3350913,부강약국,01
강원도 원주시 중앙로 105 1층 (중앙동),32816847,37.3494603,127.9506579,양문약국,01
통영시 한산면 한산일주로841-1,6128304874,34.7668955,128.5078874,통영한산우체국,02
충청북도 청주시 상당구 수영로 277 (금천동),33814414,36.6294085,127.5052915,건강드림약국,01
전남 광양시 옥룡면 271의2,4168216080,,,광양농협하나로마트옥룡점,03
충청북도 청주시 서원구 사직대로 95 (사창동),33813272,36.6350714,127.4580766,메디컬다정약국,01
경기도 부천시 역곡로 30 104호 (역곡동),41820088,37.487963,126.8107391,늘푸른소나무약국,01
"경기도 수원시 영통구 광교호수공원로 80 A동 209호 (원천동, 광교아이파크)",41846311,37.2739774,127.0612197,팜프라자앨리약국,01
강원 삼척시 도계읍 도계로 295 (도계농협),2228202619,37.2353425,129.0441629,도계농협하나로마트본점,03
"전라북도 전주시 완산구 공북로 48 (태평동, 명신약국)",35806001,35.82552,127.1373163,미약국,01
서울특별시 은평구 은평로 121 (응암동),12851205,37.6004992,126.9211054,원약국,01
경기도 부천시 역곡로490번길 108 (고강동),31866689,37.5275282,126.821935,동원프라자약국,01
경기도 화성시 봉담읍 와우안길 65,31886159,37.2170774,126.9749582,남수원약국,01
"서울특별시 강서구 강서로 143 1층 (화곡동, 삼화빌딩)",11813865,37.5396022,126.8415729,예성약국,01
대구광역시 달서구 월배로 58 1층 (진천동),37848704,35.8132388,128.5209495,우리약국,01
대구광역시 서구 국채보상로 151 (평리동),37810863,35.8693404,128.547775,청암약국,01
충청북도 청주시 청원구 안덕벌로 40 (내덕동),33802157,36.6575746,127.4930024,원동약국,01
경기도 성남시 수정구 위례광장로 320 아이에스센트럴타워131호 (창곡동),31894321,37.4722451,127.1429497,연지온누리약국,01
부산광역시 부산진구 중앙대로 801 102호 (부전동),21841853,35.1634601,129.0633429,바른약국,01
"충청북도 청주시 청원구 율봉로 142 (율량동, 아름빌딩)",33805199,36.6680188,127.4847498,청담약국,01
전라북도 고창군 심원면 심원로 206 (심원약국),35816503,35.5237179,126.5507097,심원약국,01
"경기도 용인시 수지구 문인로 59 107호 (풍덕천동, 삼익상가)",31816304,37.3323534,127.0966345,베델약국,01
전라남도 나주시 산포면 산포로 420 ,4128300244,35.0356879,126.8038677,산포우체국,02
경상남도 창원시 진해구 충장로657번길 20 1층 107호 (장천동),38837382,35.1305737,128.7057356,새현대약국,01
경상북도 구미시 구미대로22길 11 (신평동),37838024,36.1137881,128.365409,마트약국,01
충청남도 서산시 시장6로 30 (동문동),34842811,36.7823245,126.4580435,수약국,01
경상남도 산청군 산청읍 웅석봉로 10,38830779,35.416324,127.876475,산청행복약국,01
충청북도 청주시 흥덕구 옥산면 청주역로 632,33812837,36.6639056,127.3757308,동보옵티마약국,01
경기도 평택시 평택5로 191 (비전동),31898599,36.9964691,127.1028147,덕동약국,01
제주 제주시 구좌읍 김녕리 1634번지,6168200892,33.5546383,126.7493967,김녕농협하나로마트,03
경기도 동두천시 중앙로 112 110호 (지행동),31836623,37.8914739,127.0525009,필약국,01
경기도 용인시 처인구 포곡읍 전대로78번길 3,31828469,37.2852346,127.2172301,독일약국,01
충청남도 계룡시 엄사면 번영로 38 38,34814591,,,종로약국,01
"서울특별시 종로구 삼봉로 81 207호 (수송동, 두산위브파빌리온)",12836524,37.5725619,126.9815061,푸른소나무약국,01
전라남도 해남군 마산면 마산로 448 ,4158300374,34.62195,126.5690374,해남마산우체국,02
경기도 부천시 소사로 793 1층 (원종동),31844031,37.5269322,126.8045473,생명사랑약국,01
"경기도 용인시 기흥구 구성3로 38-101, b동 (청덕동, 휴먼시아물푸레마을2단지아파트)",41823265,,,선약국,01
경기도 구리시 경춘로 223 (인창동),31824692,37.6008963,127.1401869,삼층약국,01
서울특별시 강남구 삼성로92길 27 지하1층 (삼성동),12813818,37.5083801,127.0585572,사랑온누리약국,01
경상남도 창원시 진해구 충장로 130 (충무동),38835525,35.1518811,128.6662957,우리약국,01
충청북도 음성군 감곡면 장감로 126번길 2,3038301973,37.11854,127.6364,음성감곡 우체국,02
대전광역시 대덕구 신탄진로 847 1층 (신탄진동),34810871,36.4530603,127.4284227,새희망약국,01
서울특별시 서초구 사임당로 157 릿타워 410호 (서초동),11851783,37.4924723,127.026839,메디팜 동양약국,01
경기도 부천시 성지로102번길 38 (고강동),41831659,37.5280719,126.8133619,성모청약국,01
"서울특별시 서초구 남부순환로347길 101 1층 (서초동, 조이빌딩)",12854191,37.4887143,127.0298492,서초메이플약국,01
"서울특별시 성동구 장터길 45-1, (금호동3가)",11859211,37.5483962,127.0210729,도원약국,01
울산광역시 울주군 온양읍 온양로 102,38824078,35.4099617,129.2827745,튼튼약국,01
경기도 수원시 장안구 창훈로52번길 3 명성약국 1층 (연무동),41846613,37.2971335,127.0302405,명성약국,01
경기도 평택시 청북읍 청북산단로 48-8,41833571,37.050445,126.9754318,장생약국,01
전라남도 여수시 신월로 676 (국동),36808237,34.731254,127.7179422,초원약국,01
"경기도 평택시 중앙로 335 101호 (비전동, 벽산아파트상가)",31888160,36.9919827,127.1197515,동대문약국,01
대구광역시 달서구 달구벌대로 1718 (두류동),37819178,35.8559933,128.5534517,한국약국,01
전북 순창군 동계면 현포리 233-3,4078200449,35.4404693,127.2432444,동계농협하나로마트,03
부산광역시 해운대구 해운대로 813 엔씨백화점 지하2층 (좌동),21842981,35.1705823,129.1770742,세일약국,01
"경남 창원시 성산구 대암로 40-18 (남양동,남양동농협) 지하1층",6098544802,35.213476,128.701,농협하나로유통 하나로마트 남양점,03
대구광역시 달성군 화원읍 성암로1길 9,37834673,35.8018924,128.5095915,그린빌하나약국,01
경북 김천시 증산면 유성리 258-4,5108205041,35.9014747,128.0368237,김천대산농협하나로마트증산점,03
부산광역시 북구 약초골목길 27 (구포동),21806012,35.2082069,129.0029707,다정약국,01
충청북도 청주시 흥덕구 1순환로 585 1층 (봉명동),33816859,36.6409919,127.4613515,봉약국,01
경북 예천군 풍양면 낙상2길 48 ,5128300700,36.51045,128.299375,예천풍양우체국,02
대전광역시 중구 목중로54번길 50 (중촌동),34802193,36.3403702,127.408742,평화약국,01
서울특별시 종로구 대학로5길 53 1층 (연건동),12864994,37.5795758,127.0014749,이화약국,01
"서울특별시 금천구 금하로 763 313,314호 (시흥동, 벽산중심상가)",11870397,37.4503622,126.9146175,백산온누리약국,01
충청북도 청주시 서원구 1순환로1137번길 102 1층 (분평동),33812501,36.6108671,127.4933238,우리약국,01
경상북도 구미시 장천면 강동로 143 ,5138301022,36.1226487,128.496525,구미장천우체국,02
"경기도 성남시 분당구 불정로 379 1층 103-2호 (서현동, 분당서현프라자)",31872964,37.3743689,127.1364236,엄마약국,01
경남 산청군 생비량면 비량로 49,6138302170,35.3455838,128.0464542,산청생비량우체국,02
인천광역시 강화군 화도면 마니산로 728,31864414,37.633158,126.4173344,화도약국,01
서울특별시 송파구 토성로 58 (풍납동),12845973,37.5290315,127.1160973,새그린약국,01
"경상남도 진주시 대신로 358-1, 1층 (하대동)",38836939,35.1925285,128.1169117,영찬한약국,01
울산광역시 남구 돋질로 82 (달동),38801035,35.5384134,129.3148031,울산제일약국,01
부산광역시 북구 만덕대로 41 (덕천동),21802980,35.2113986,129.0094549,중앙약국,01
부산 금정구 장전1동 158-85,6218200685,,,금정농협하나로마트장전점,03
"경상남도 밀양시 삼문중앙로 36-4, (삼문동)",38833522,35.484803,128.7558929,규태약국,01
"경기도 성남시 분당구 판교로 442 401호 (이매동, 우일프라자빌딩)",41835557,37.4051478,127.1228918,햇님약국,01
"경기도 군포시 고산로 256 204-1호 (당동, 금강프라자)",41836162,37.3465627,126.9443739,로뎀온누리약국,01
충청남도 천안시 동남구 만남로 9 더？오피스텔 103호 (신부동),34843094,36.8191823,127.1530166,더샵약국,01
전남 진도군 고군면 오산리 1048-2 선진농협 고군지점 하나로마트,4158211743,34.4913581,126.343039,선진농협하나로마트고군점,03
대구광역시 서구 달서로 54 (내당동),37804073,35.86694,128.5711975,대보약국,01
서울특별시 강남구 선릉로 42 1층 (개포동),12804932,37.4833803,127.0600593,개포종로온누리약국,01
"경기도 부천시 신흥로 190 211,212호 (중동, 위브더스테이트)",31888593,37.5008714,126.7771122,위브약국,01
경상남도 김해시 분성로 14 (외동),38829827,35.2314132,128.8488025,예일약국,01
인천광역시 미추홀구 주안서로 28 (주안동),31804829,37.4611062,126.677895,신보건약국,01
충청남도 홍성군 홍성읍 조양로 216,34824294,36.5997529,126.673482,참약국,01
"충청남도 천안시 동남구 신촌4로 16 101호 (신방동, 초원그린아파트상가)",34818227,36.7872937,127.1264388,초원그린약국,01
"인천광역시 남동구 장도로 4, 105호 (논현동)",41833139,37.4050457,126.7352009,경희논현한약국,01
서울특별시 서대문구 홍연길 87 (연희동),11858567,37.5768511,126.9312544,홍연약국,01
"인천광역시 부평구 경인로 947 (부평동, 태성메디칼 109호110호)",41816412,37.4878475,126.7249311,부평판도라약국,01
서울특별시 마포구 월드컵로 159 1층 (망원동),12816531,37.5617905,126.9046161,메디칼세영약국,01
대구광역시 남구 두류공원로17길 40 1층 (대명동),37849603,35.8445761,128.5682551,세계로약국,01
"서울특별시 강남구 일원로 95 105,202호 (일원동, 신영프라자)",12832782,37.4858215,127.0834524,이대학약국,01
강원도 원주시 호저면 원문로 641 641,32801181,,,만종현대약국,01
울산광역시 울주군 온양읍 남창1길 50,38838613,35.4170722,129.2808277,온양온누리약국,01
"경상북도 영천시 시장로 74-1, (완산동)",37829921,35.9633206,128.9384217,온누리유명약국,01
부산광역시 강서구 공항진입로 108 국내선 2층 (대저2동),21842442,35.1728733,128.9457996,진진약국,01
서울특별시 은평구 통일로 738 (불광동),12843211,37.6114242,126.9294218,이레약국,01
경기도 오산시 성호대로 113,31895093,37.1489884,127.0739643,오산중앙약국,01
경기도 수원시 팔달구 중부대로 169 (우만동),41803051,37.277804,127.0349756,신한약국,01
제주특별자치도 제주시 동광로 124 1층 (일도이동),39802213,33.5069644,126.5402695,수약국,01
서울특별시 관악구 남부순환로 1912 1층 (봉천동),12835145,37.4775004,126.961655,수약국,01
서울특별시 강남구 봉은사로 474 105호 (삼성동),11894946,37.5123688,127.0519533,자연애약국,01
경상남도 진주시 하대로 128 (하대동),38836866,35.1932104,128.1255482,송원한약국,01
대구광역시 수성구 들안로 376 (수성동4가),37805673,35.8637621,128.6182752,수정약국,01
"대전광역시 동구 동서대로 1689 5층 505호 (용전동, 대전복합터미널(서관))",34840028,36.3503331,127.4367146,한우리약국,01
"인천광역시 서구 완정로 180 1층 (마전동, 동화빌딩)",31883010,37.602849,126.6564677,착한약국,01
전라남도 순천시 중앙로 14 1층 (장천동),36834840,34.9480582,127.4872729,유킹스파머시우리약국,01
부산광역시 동래구 충렬사로 45 (안락동),21817537,35.2031314,129.0981436,화목약국,01
"전라남도 해남군 해남읍 중앙1로 2-14, 103호",36828637,34.5718093,126.607585,해남온누리약국,01
세종특별자치시 소정면 소정구길 163,34820574,36.7188634,127.1563096,다정약국,01
전북 진안군 마령면 임진로 2097,4068300614,35.733079,127.3703553,진안마령우체국,02
"경기도 의정부시 청사로 37 503호 (금오동, 신세계프라자)",31885578,37.7515204,127.0698807,초록약국,01
강원도 원주시 원일로 213 (학성동),32812019,37.3557315,127.944124,삼성약국,01
전라북도 전주시 덕진구 건지2길 11 (금암동),35816554,35.8442901,127.1411867,행복드리는약국,01
경북 영천시 구읍1길 9 (완산동),5058202907,35.9612513,128.9341604,영천농협하나로마트,03
대구광역시 수성구 명덕로 432 104호 (수성동3가),37845039,35.8539767,128.6174318,수성현약국,01
경상북도 구미시 1공단로 182 107호 (공단동),37842668,36.1018072,128.3829163,대학약국,01
경남 하동군 악양면 악양동로 381,6148300097,35.1617233,127.7094667,악양우체국,02
"경기도 고양시 덕양구 중앙로 550 303-A호 (행신동, 삼일프라자)",41805348,37.623505,126.8362389,해인약국,01
"경기도 남양주시 평내로29번길 49 305,306호 (평내동, M2플라자)",31848851,37.6458624,127.2356564,메디칼3층약국,01
"경기도 용인시 기흥구 신갈로58번길 13-2, (신갈동)",41807162,37.2724596,127.1073678,태평양약국,01
경상북도 예천군 예천읍 효자로 93,37810936,36.6570946,128.4540035,행복한 약국,01
경기도 부천시 길주로 262 이안 더 클래식 1층 129호 (중동),41837291,37.5030362,126.7714396,이안약국,01
전라남도 목포시 중화길 13 (상동),36827916,34.8090558,126.4158627,이수약국,01
"경상북도 김천시 자산로 183-1, (평화동)",37824988,36.1266782,128.1177677,대남약국,01
서울특별시 노원구 동일로 1370 1층 (상계동),12827819,37.6509222,127.0618793,아름다운온누리약국,01
경기도 오산시 오산로 300 (오산동),31821073,37.1537594,127.0688368,대원약국,01
경상남도 진주시 진양호로 457 (인사동),38819651,35.190719,128.0759944,샘물약국,01
"경기도 부천시 범안로 117 317호 (범박동, 현대리치모아)",31837735,37.4712172,126.8095873,삼층약국,01
"경상남도 통영시 중앙로 101-6, (항남동)",38836416,34.8424505,128.4203184,올리브약국,01
"서울특별시 광진구 강변역로 50 124호 (구의동, 동서울터미널빌딩)",11862505,37.534538,127.0942004,동서울약국,01
서울특별시 양천구 신정중앙로 107 (신정동),11853735,37.5264384,126.863711,인지온누리약국,01
대전광역시 대덕구 덕암로 201 (덕암동),34827552,36.4385039,127.4230808,평화약국,01
아산시 염치읍 염성길109-7,3128301453,36.815431,126.972255,염치우체국,02
경기도 수원시 영통구 삼성로 2 1층 (신동),31891951,37.246073,127.0485947,신영약국,01
"경기도 포천시 소흘읍 봉솔로5길 27 1층 11,12호",41814509,37.8278016,127.145,송우늘푸른약국,01
강원도 원주시 치악로 1863 (봉산동),32801530,37.3478962,127.9561429,전약국,01
서울특별시 은평구 연서로 246 203호 (불광동),12834602,37.6190598,126.9226206,홍약국,01
경기도 파주시 월롱면 다락고개길 113,31823521,37.7950898,126.7910374,태평양약국,01
"경기도 수원시 장안구 만석로19번길 11-7, 1층 103호 (천천동)",41841255,37.2955001,126.9834207,미소약국,01
경기도 수원시 권선구 일월천로4번길 55 1층 (구운동),41815386,37.282683,126.9752163,광혜원한약국,01
충청북도 음성군 금왕읍 무극로308번길 9,33810834,36.9930546,127.5960298,새서울약국,01
경기도 수원시 장안구 조원로 87 (조원동),31897851,37.3008,127.0157518,푸름약국,01
대구광역시 동구 동촌로 242 다산빌딩 (방촌동),37805053,35.8807884,128.6661645,그랜드약국,01
충청남도 천안시 서북구 성환읍 율금1길 291  ,34826807,36.9040469,127.1106481,참사랑약국,01
"경기도 시흥시 서울대학로278번길 43-13, 105호 (정왕동)",41812778,37.3692355,126.730188,스타약국,01
전라남도 곡성군 고달면 목동1길 7 ,4088304450,35.2950743,127.3411854,고달우체국,02
경기도 의정부시 평화로 382 (호원동),31865933,37.7259646,127.0485152,한사랑약국,01
강원도 원주시 우산로 40 (우산동),32813228,37.367931,127.9366758,장수약국,01
서울특별시 강북구 도봉로 59 1층 (미아동),12862398,37.6142243,127.0296793,숭인약국,01
부산광역시 금정구 부산대학로 47 1층 (장전동),21836400,35.2311629,129.086043,대학로약국,01
대전 중구 오류동 175-3 올리브빌딩 1층,3058531370,36.3259184,127.4077734,(주)농협대전유통 오룡점,03
경기도 김포시 유현로238번길 31 웅신타워 3층 301호 (풍무동),31868312,37.6113971,126.7328464,풍무우리들약국,01
대구광역시 서구 서대구로62길 47 (비산동),37836391,35.8860391,128.5618138,대지약국,01
경남 고성군 영오면 영산리 422,6128203989,35.1083087,128.237943,동고성농협하나로마트영오점,03
"경기도 안산시 단원구 원초로 30 308호 (원곡동, 보성프라자)",41838815,37.3283906,126.8017312,원곡햇살약국,01
울산광역시 북구 진장유통로,38815214,,,마트약국,01
인천광역시 미추홀구 인하로77번길 6 (용현동),41840798,37.4513449,126.6572172,인하사랑약국,01
충북 충주시 탄금대로 364,3038210548,36.9873823,127.893954,충주농협농축산물판매장,03
충청북도 청주시 흥덕구 2순환로 1262 102호 (가경동),33806845,36.6235047,127.4308627,신청주약국,01
서울특별시 은평구 갈현로 16 (신사동),12853887,37.5992414,126.9103761,신사프라자약국,01
경상남도 사천시 사천읍 진삼로 1470,38801752,35.082411,128.0862356,명문약국,01
충남 예산군 오가면 오가중앙로 39,3118300219,36.688493,126.794175,오가우체국,02
"인천광역시 서구 완정로 70 211호 (마전동, 영남탑스빌아파트 상가)",31872824,37.5980111,126.6673173,수약국,01
"서울특별시 서초구 강남대로 545-4, 1층 (반포동)",12822361,37.510542,127.0211522,한약국,01
충청남도 아산시 배방읍 배방로 53 308호 (황금프라자),34838643,36.7720955,127.0552067,건강한약국,01
경기도 평택시 비전5로 37 102호 (비전동),41842472,37.0016056,127.1147039,비전미소약국,01
"경기도 고양시 일산서구 일현로 97-11, 106호 (탄현동, 일산 위브더제니스)",41824458,37.6940172,126.7628568,경희한약국 순수착한맘,01
경북 고령군 성산면 성산로 902-4 ,5038300763,35.74941,128.360463,고령성산우체국,02
전라남도 해남군 현산면 현산북평로 106 (광제당약국),36809772,34.4581653,126.5533752,광제당약국,01
경기도 남양주시 진접읍 해밀예당1로 30 (센타프라자 107 호),41803957,37.7117942,127.1864721,엄마마음약국,01
부산광역시 사하구 다대로 3 (당리동),21818339,35.101771,128.977007,당리수정약국,01
서울특별시 강동구 천호대로 1006 브라운스톤천호 105호 (성내동),12869643,37.5380133,127.1237896,1층천호약국,01
인천 서구 청라에메랄드로102번길 12,1378201011,37.5339527,126.6578936,서인천농협하나로마트본점,03
"인천광역시 연수구 원인재로 88 101호 (동춘동, 대우삼환아파트상가)",31806511,37.4051487,126.678875,효성약국,01
인천광역시 미추홀구 제일로 34 1층 (도화동),31888470,37.4585996,126.6739486,도화태평양약국,01
광주광역시 서구 쌍학로 43 (쌍촌동),36802743,35.146824,126.869888,유성약국,01
경남 창원시 반림동 8 럭키상가내,6098204212,35.2390143,128.6680864,동창원농협하나로마트반송점,03
전라남도 무안군 삼향읍 남악2로74번길 39 (광일프라자),36827428,34.8130693,126.4592078,솔약국,01
"울산광역시 남구 대학로 128 1층 (무거동, 하늘빌딩)",38831139,35.5459927,129.2615683,메디팜행복약국,01
서울특별시 성동구 마장로 321 (마장동),11860375,37.5675566,127.0447331,시대약국,01
경기도 안산시 단원구 고잔2길 9 (고잔동),41805003,37.3180394,126.8320612,나은약국,01
전북 부안군 상서면 부안로 2004,4058301186,35.6862929,126.6787882,부안상서우체국,02
전남 구례군 간전면 간문리 22-2,4168210596,35.1782706,127.544544,구례농협하나로마트간전점,03
"충청남도 서산시 중앙로 135 1층 (석림동, 비타민빌딩)",34836853,36.7757599,126.463882,청담약국,01
경상남도 창원시 마산회원구 내서읍 삼계6길 14,38831317,35.2327981,128.5034806,일등약국,01
부산광역시 영도구 절영로 49 (남항동1가),21839204,35.0901257,129.0387608,대추당한약국,01
울산광역시 동구 안산로 50 (동부동),38800578,35.5426829,129.4318372,신대흥약국,01
"강원도 춘천시 서부대성로227번길 15-6, (효자동)",32815042,37.8739731,127.7447264,봄내약국,01
광주광역시 광산구 상무대로 256 송정빌딩 1층 (송정동),36829251,35.1413157,126.794916,한빛약국,01
부산광역시 수영구 광남로 108 (광안동),21804401,35.151418,129.115596,바다약국,01
경북 성주군 수륜면 신파1길 10-7 ,5108302740,35.832525,128.192038,성주수륜우체국,02
대전광역시 유성구 구즉로 48 (송강동),34816321,36.4333681,127.3848276,즐거운온누리약국,01
서울특별시 광진구 영화사로 30 (중곡동),11862793,37.5569059,127.0902606,우리들약국,01
대전광역시 유성구 반석로 20 플러스존 1층 102호 (반석동),34841547,36.3917888,127.3123291,반석약국,01
"인천광역시 부평구 주부토로 231 1층 106호 (갈산동, 갈산홈프라자)",31856713,37.5158535,126.7260311,바다약국,01
경기도 양주시 평화로 1440 (덕계동),31831753,37.8191133,127.0470699,평화약국,01
강원도 화천군 하남면 영서로 5494 ,2218304038,38.0581499,127.6663687,화천하남우체국,02
경기도 성남시 중원구 둔촌대로 163 1층 (성남동),41804104,37.429863,127.1367944,중원종로약국,01
경북 청도군 이서면 학산리664-1,5158205352,35.6621306,128.6663895,서청도농협하나로마트,03
서울특별시 강동구 고덕로83길 6 101호 (고덕동),11804785,37.5574053,127.1689424,두레약국,01
"경기도 남양주시 경춘로 368 111호 (가운동, 브릭스타워)",41826868,37.6046106,127.1556209,청우약국,01
"경기도 고양시 일산서구 중앙로 1426 105,106호 (주엽동, 일송노블레스)",31822916,37.6702816,126.7619659,대원약국,01
완주군 구이면 하학길 6 ,4028303977,35.7331275,127.1195576,완주구이우체국,02
사천시 축동면 길평길 37,6198300980,35.108293,128.0886826,사천축동우체국,02
전남 여수시 화양면 나진길 36 (농협),4178205951,34.70795,127.6119125,여천농협하나로마트화양점,03
울산광역시 동구 방어진순환도로 725 (전하동),38832372,35.5065533,129.4296642,현약국,01
서울특별시 노원구 한글비석로48길 13 (상계동),11817224,37.6648791,127.0670837,상계하나로약국,01
전남 광양시 다압면 항동3길 11,4168201627,35.1214953,127.6916291,다압농협하나로마트,03
전남 해남군 산이면 초송리 577-6,4158210235,34.6449742,126.4464207,산이농협하나로마트,03
인천광역시 동구 송현로 1 1층 (송현동),31810985,37.4770468,126.6333412,송현메디칼약국,01
경기도 남양주시 진건읍 진건오남로 90,41805631,37.6587264,127.1783444,예약국,01
"서울특별시 송파구 석촌호수로 58 (잠실동, 동신빌딩 1층)",11886510,37.5110976,127.085466,지혜온누리약국,01
부산광역시 사상구 대동로 137 (학장동),21841527,35.1403952,128.9821381,더(The)약국,01
서울특별시 광진구 자양로 115 (자양동),12843946,37.5381262,127.0830556,종로온누리약국,01
강원도 원주시 봉화로 22 1층 (단계동),32806540,37.3462366,127.928795,다나약국,01
"서울특별시 강남구 봉은사로 211 1층 (논현동, 그림바우빌딩)",12858447,37.5079982,127.0352111,센트럴약국,01
경상남도 거창군 거창읍 거창대로 65,38839849,35.6873324,127.9156792,기쁨약국,01
"경기도 용인시 수지구 포은대로313번길 4 (풍덕천동, 수지미래빌딩 103호)",31882234,37.3150258,127.0864264,한사랑약국,01
광주광역시 북구 용주로30번길 10 (용봉동),36814717,35.1813276,126.901366,하나약국,01
"경기도 수원시 장안구 정조로934번길 35-2, (영화동)",31808549,37.2918917,127.0144734,나약국,01
인천광역시 계양구 계산새로65번길 17 (계산동),31838693,37.5398514,126.7353304,서울메디칼약국,01
"경기도 안양시 동안구 경수대로733번길 23 비-109호 (호계동, 호계1차현대홈타운상가)",31859496,37.386098,126.9490846,새현대약국,01
강원도 원주시 서원대로 402 대신프라자 (단구동),32816588,37.3304617,127.9492947,큰사랑약국,01
"경기도 안성시 일죽면 금일로 465-1,",41817079,37.0931401,127.4782213,성림약국,01
"경기도 화성시 동탄대로시범길 142 110,111호 (청계동, 센텀프라자)",41838912,37.1999195,127.1133874,센텀프라자약국,01
전라남도 함평군 손불면 손불중앙길 75 75,36812081,,,우리약국,01
부산광역시 강서구 명지국제8로 269 유당빌딩 1층 102호 (명지동),21835667,35.0981122,128.9224052,새봄약국,01
"경기도 용인시 수지구 성복2로 108-2, (성복동,웰스톤갤러리B109~B110호)",41839269,37.3158106,127.0746421,기린약국,01
"경기도 성남시 분당구 서현로180번길 19 101-13호 (서현동, 비전월드)",41805801,37.3873372,127.1224588,상생약국,01
대전광역시 유성구 테크노3로 65 한신에스메카 1층 141호 (관평동),34831525,36.4292608,127.3907803,하영약국,01
부산광역시 부산진구 동성로 152 (전포동),21822999,35.161671,129.0627888,부산진약국,01
"서울특별시 서대문구 거북골로 120 3동 3-1호 (남가좌동, 가재울센트레빌아파트상가)",12821683,37.5761735,126.9157281,가재울온누리약국,01
부산광역시 남구 신선로 333 (용당동),21804184,35.1156915,129.0947372,사상오체사성당약국,01
경남 산청군 신안면 원지로 12 (산청농협신안점),6138216449,35.3026955,127.9735416,산청군농협하나로마트신안점,03
강원도 삼척시 원덕읍 임원항구로 11,32815417,37.2301555,129.3436805,임원약국,01
경북 청도군 운문면 청려로 4725 ,5158301824,35.716612,128.9148511,청도운문우체국,02
서울특별시 마포구 도화4길 19 1층 (도화동),11826185,37.5410431,126.9510216,독일약국,01
통영시 사량면 진촌2길6-23,6128300752,34.8437093,128.2252022,통영사량우체국,02
"서울특별시 노원구 동일로203가길 29 205호, 206호 (중계동, 브라운스톤중계)",11881348,37.6399301,127.0642714,올리브약국,01
충청북도 증평군 증평읍 중앙로 206 (서울빌딩 102호),33816026,36.7840645,127.5816232,별약국,01
광주광역시 서구 염화로 87 1층 (화정동),36831018,35.1423225,126.8742491,염주종로약국,01
"서울특별시 노원구 한글비석로 253 305호 (중계동, 세신프라자)",11857056,37.6504182,127.0764303,소망약국,01
세종특별자치시 남세종로 450 보람빌딩 104호 (보람동),34811974,36.4774071,127.2901039,서울약국,01
"경기도 의정부시 평화로 635 (의정부동, 미림프라자)",41834631,37.7486588,127.0448571,국민약국,01
"서울특별시 강남구 일원로 95 109호 (일원동, 신영프라자)",12845418,37.4858215,127.0834524,삼성정문약국,01
서울특별시 광진구 광나루로 538 (구의동),11814128,37.5446463,127.0892456,명성약국,01
"경기도 의정부시 금오로 121-8, (금오동)",41847784,37.7578556,127.0787957,성바오로약국,01
부산광역시 해운대구 좌동순환로 309 삼정프라자 104호 (좌동),21842469,35.1683794,129.1832014,일신약국,01
인천광역시 부평구 부평문화로 99 (부평동),31807267,37.4944206,126.7273253,일광온누리약국,01
"서울특별시 강서구 마곡중앙로 36 상가 107-1호 (마곡동, 마곡엠벨리 15단지)",12853330,37.5571395,126.8274405,조은약국,01
경기도 남양주시 퇴계원면 퇴계원로46번길 1,31879578,37.6505139,127.1419481,참사랑약국,01
대전광역시 유성구 테크노4로 105 104호 (관평동),34800417,36.4253029,127.3897584,명인약국,01
부산광역시 동래구 안연로109번길 24 (안락동),21834571,35.1971884,129.0966569,코끼리약국,01
전북 무주군 설천면 소천리 904-34번지 1,4068202051,36.0093149,127.7878543,구천동농협하나로마트본점,03
"충청남도 아산시 서부북로 973 115호 (배미동, 서진아파트상가)",34820850,36.78942,126.967424,행복이열리는약국,01
서울특별시 관악구 난곡로 290 (신림동),12842869,37.4798776,126.9150681,경희미소원한약국,01
"경기도 시흥시 승지로60번길 25 102~103호 (능곡동, 센타프라자)",41816765,37.3679702,126.8122407,굿모닝온누리약국,01
경기도 수원시 권선구 권광로 62 백림빌딩 1층 101호 (권선동),31808743,37.253458,127.0288133,다원약국,01
대구광역시 달성군 화원읍 비슬로 2578,37841831,35.8033812,128.4987986,홍익대학약국,01
서울특별시 마포구 성미산로10길 44 1층 (서교동),11827335,37.5576216,126.9151197,연세약국,01
전남 순천시 외서면 월암리165-5,4168210354,34.9153928,127.2744538,순천농협하나로마트외서점,03
"경기도 수원시 장안구 송원로 81 402호 (조원동, 메가플러스2차)",41849809,37.3021322,127.0092298,봄빛약국,01
충청남도 청양군 청양읍 중앙로 178,34818961,36.4552285,126.8039687,푸른약국,01
"충청남도 부여군 홍산면 홍산로 54-3,",34817859,36.2144149,126.7600926,현대약국,01
전라북도 전주시 완산구 백제대로 262 (중화산동2가),35808187,35.8164055,127.1233945,전주종로약국중화산점,01
서울특별시 성동구 왕십리로21길 19 행당시장 1층 (행당동),11859962,37.5606951,127.0327718,상도약국,01
대구광역시 달성군 다사읍 달구벌대로 881 102호,37841084,35.8578122,128.4657369,튼튼약국,01
서울특별시 관악구 대학길 36 (신림동),11873124,37.4691293,126.9375914,강원약국,01
"경기도 수원시 팔달구 정조로 797-1, (팔달로2가)",31872921,37.2792636,127.0164556,팔달약국,01
대전광역시 동구 동대전로 90 (대동),34843370,36.3304171,127.4438288,건강제일약국,01
전라남도 해남군 문내면 동영길 22,36831042,34.5970886,126.3130221,소망약국,01
"경기도 군포시 산본로323번길 16-15, 406호 (산본동, 광림빌딩)",31895654,37.3594286,126.9315879,행복한약국,01
"경기도 부천시 석천로 188 지하1층 (중동, 이마트중동점)",41803485,37.5040681,126.7639331,굿모닝약국,01
충북 충주시 앙성면 가곡로 1027 (앙성농협),3038200491,37.108524,127.75325,충주앙성농협하나로마트,03
"경기도 구리시 건원대로 44 112호 (인창동, 태영빌딩)",41811160,37.6051338,127.1404628,새싹약국,01
충청북도 청주시 서원구 구룡산로 246 2층 (수곡동),33810737,36.6162168,127.4725299,수곡우리약국,01
"서울특별시 송파구 송파대로 558 1층 103호 (신천동, 월드타워빌딩)",12856592,37.5150949,127.0997117,에벤에셀약국,01
"서울특별시 중구 다산로 72 1층 (신당동, 서울시니어스타워)",12808776,37.5509046,127.008075,서울시니어스약국,01
"부산광역시 금정구 금강로 206-16, 1층 (장전동)",21840377,35.2265122,129.0833055,사랑온누리약국,01
전라남도 여수시 여서로 158 (여서동),36808521,34.7479166,127.6991323,세계로약국,01
"광주광역시 광산구 풍영철길로 20-6, (우산동)",36829951,35.1628024,126.8128526,약국산책,01
"인천광역시 남동구 구월로 212 1601동 234호 (구월동, 힐캐슬프라자)",31874592,37.4560189,126.7140509,우리온누리약국,01
경기도 안산시 단원구 화정천서로3길 7 (선부동),31842551,37.3431457,126.8170926,구민사약국,01
충청남도 공주시 신금1길 54 (신관동),34823085,36.4769542,127.1460005,서울약국,01
경기도 남양주시 진접읍 금강로1573번길 9 106호,41842634,37.7321671,127.1938121,아침약국,01
경상남도 창원시 진해구 진해대로921번길 6 우리연합의원 (자은동),38809451,35.1471318,128.7076611,청솔약국,01
"서울특별시 종로구 우정국로 38-1, 1층 (견지동)",11801859,37.5724922,126.983275,대도약국,01
충청남도 아산시 번영로 223 아산 동양고속터미널 복합시설 302호 (모종동),34818316,36.7848546,127.0152216,새봄약국,01
서울특별시 양천구 목동중앙서로2길 9 1층 (목동),12868922,37.5320273,126.8645743,홍익후문약국,01
서울특별시 영등포구 영신로32길 20 (영등포동4가),12846082,37.5189307,126.903402,늘푸른이화약국,01
경상남도 김해시 김해대로 2342 (부원동),38835665,35.2257165,128.8832404,부원참약국,01
전라북도 전주시 완산구 서원로 66 (효자동2가),35807776,35.8133841,127.1016269,마더온누리약국,01
경상북도 울진군 울진읍 현내항길 81,37848160,36.9920892,129.4088494,울진제일약국,01
서울특별시 마포구 독막로 63 1층 (상수동),11878002,37.5479912,126.9205421,최국희약국,01
경상북도 구미시 인동중앙로 26 (인의동),37823663,36.1073889,128.421663,안지약국,01
"경기도 광명시 철산로 27 107호 (철산동, 명동빌딩)",31866735,37.4768323,126.8690078,온누리선우약국,01
"서울특별시 강남구 일원로 95 108호 (일원동, 신영프라자)",12823724,37.4858215,127.0834524,천사약국,01
서울특별시 성동구 용답중앙3나길 24 (용답동),11822155,37.5678391,127.0507081,정민약국,01
경북 울진군 울진읍 울진중앙로 77,5078202602,36.9891247,129.3987309,울진농협하나로마트월변점,03
강원 홍천군 서면 팔봉산로 542 서홍천농업협동조합 두미지점,6498200169,37.681922,127.6628656,서홍천농협하나로마트두미지점,03
경북 성주군 초전면 대장1길 28 ,5108302793,35.9720376,128.263169,성주초전우체국,02
"서울특별시 양천구 목동서로 400 108호 (신정동, 목동아파트10단지B상가)",12838551,37.517694,126.858786,소망이 샘솟는 느티나무 한약국,01
서울특별시 송파구 송파대로 422 (송파동),11804181,37.5050063,127.1077728,새희망약국,01
서울특별시 종로구 종로 162 1층 (종로4가),12803341,37.5703832,126.9957159,승보약국,01
부산광역시 사상구 낙동대로 733 (엄궁동),21824827,35.1276017,128.9683582,뉴월드약국,01
서울특별시 성동구 용답중앙13길 2 1층 (용답동),12862291,37.5644742,127.0521285,신이화약국,01
서울특별시 송파구 법원로 114 엠스테이트 C동 214호 (문정동),11887460,37.4857987,127.1206993,문정이화약국,01
"부산광역시 남구 황령대로319번가길 158-4, (대연동)",21828962,35.1520161,129.0886245,희망약국,01
"경상북도 문경시 매봉4길 24-1, (모전동)",37815253,36.5867095,128.1844852,세아온누리약국,01
"경상북도 구미시 선산읍 남문로 25-1,",37820699,36.2398605,128.3017237,세명약국,01
대구광역시 서구 서대구로 192 1층 (평리동),37850105,35.8750499,128.5552372,평리제일약국,01
서울특별시 광진구 아차산로 218 (자양동),11820462,37.5407919,127.0674105,건대역약국,01
경기도 시흥시 시흥대로1073번길 5 (신천동),31850901,37.4317627,126.7920801,새들약국,01
"경기도 수원시 장안구 장안로 232 1층 5호 (정자동, 동신상가)",31874622,37.3029503,126.9946738,정자한마음약국,01
경북 구미시 선산읍 완전리 252-3,5138202043,36.2392392,128.3017974,선산농협하나로마트중앙점,03
경남 창녕군 장마면 강리976의5,6158204274,35.4587194,128.4748394,영산농협하나로마트장마점,03
경기도 가평군 설악면 신천중앙로88번길 1,41841867,37.6768947,127.493773,감초온누리약국,01
전라북도 전주시 완산구 효천중앙로 51 (효자동2가),35822546,35.7989616,127.1075284,더건강약국,01
서울특별시 관악구 참숯1길 4 1층 (봉천동),12831964,37.4791002,126.9421318,파운지약국,01
광주광역시 북구 동문대로 121 1층 (우산동),36821446,35.1739311,126.9256363,좋은약국,01
"서울특별시 서초구 강남대로 507 1층 (반포동, 신태양빌딩)",11828111,37.5071711,127.0227046,신논현올리브약국,01
"서울특별시 송파구 양재대로 1222 3층 219-2호 (방이동, 올림픽프라자상가)",12853429,37.5157277,127.1310632,웰약국,01
경상북도 김천시 농소면 농남로 32,37812742,36.1069718,128.1726603,비보약국,01
울산광역시 울주군 언양읍 읍성로 7,38820676,35.5652617,129.1170914,하나약국,01
제주 제주시 조천읍 함덕 18길 29,6238200167,33.538554,126.6702949,함덕농협하나로마트본점(식자재),03
"인천광역시 남동구 장승남로 36 1층 (만수동, 만수프라자)",41822587,37.4431662,126.7362018,대웅약국,01
경기도 의정부시 오목로15번길 6 1층 (용현동),31876099,37.7324538,127.0847194,서연약국,01
"울산광역시 북구 신답로 35 1층 (상안동, 하이크리닉)",38801400,35.6287746,129.3444441,정약국,01
"인천광역시 남동구 구월로 223 108호 (구월동, 위너스프라자)",31857965,37.4564911,126.7157168,제일약국,01
강원도 화천군 간동면 간척월명로 307,2218305279,38.0547075,127.8171005,간동우체국,02
"경기도 성남시 중원구 둔촌대로 363 1층 (하대원동, 자이아파트 상가 104호)",41833392,37.433307,127.1564081,이원약국,01
"경상남도 김해시 율하3로 37 110호 (율하동, 경보센텀빌딩)",38835002,35.1716396,128.8137393,율하센텀약국,01
충청남도 당진시 서부로 74 (채운동),34810528,36.8879167,126.629128,세중약국,01
서울특별시 동대문구 전농로 212 1층 (전농동),12863599,37.5831513,127.0540338,본약국,01
인천광역시 미추홀구 아암대로29번길 77 1층 (용현동),31843760,37.4567233,126.6407447,백제당약국,01
울산광역시 북구 이화5길 10 (중산동),38830361,35.6625198,129.3390704,이화열린약국,01
경기도 파주시 교하로159번길 21 트윈프라자1 106호 (목동동),41834461,37.7232132,126.7390278,운정바른약국,01
대전광역시 중구 계룡로920번길 31 (대사동),34836225,36.318896,127.4154916,충대대령약국,01
"경기도 성남시 분당구 서현로210번길 20 2층 202호 (서현동, 코코프라자)",41817338,37.3858444,127.1240452,우리들의약국,01
인천광역시 서구 원적로 100 (가좌동),31882846,37.4950902,126.6828423,성심메디팜약국,01
"경상남도 김해시 장유로 232 101호 (부곡동, 코아상가)",38817098,35.2035086,128.8093468,메디팜영제약국,01
대전광역시 서구 계룡로 353 1층 (갈마동),34802371,36.3537938,127.3682604,갈마약국,01
"부산광역시 부산진구 중앙대로 821 201동 225호 (범전동, 삼한골든뷰 센트럴파크)",21836001,35.1651824,129.0629295,진약국,01
"서울특별시 마포구 마포대로 195 4단지상가동 219호 (아현동, 마포래미안푸르지오)",12800651,37.5529598,126.9529188,이화키즈팜약국,01
경상북도 포항시 남구 시청로 7 (대잠동),37844652,36.0180464,129.3417615,희망약국,01
경기도 하남시 미사강변대로 216 한강트윈프라자2 107호 (망월동),41814801,37.5689885,127.1845417,미사길약국,01
경상남도 진주시 평거로13번길 21 (평거동),38838575,35.1736535,128.0619262,동인당한약국,01
대전 서구 둔산동 1823번지,3148202771,36.3510537,127.3979435,대전서부농협하나로마트삼천점,03
서울특별시 중랑구 동일로 775 그린빌딩 (중화동),12845256,37.5996883,127.0794754,세계로약국,01
인천광역시 계양구 안남로 548 (효성동),31830251,37.5319462,126.7110823,효성프라자약국,01
전라남도 영광군 군남면 포천길 30 ,4108301591,35.2400167,126.4496461,군남우체국,02
"충청북도 청주시 서원구 모충로12번길 9-13, 1층 5호 (개신동, 한사랑아파트)",33801151,36.6247245,127.4663819,인화약국,01
"경기도 수원시 영통구 영통로 460 103호 (영통동, 대우동신상가)",31868568,37.2597003,127.0776126,영통주민약국,01
"충청북도 청주시 서원구 서부로1465번길 6-1, 1층 (개신동)",33814732,36.6217468,127.4600876,세종약국,01
인천광역시 계양구 계양대로 187 1층 (계산동),41813227,37.5406422,126.7223333,성심약국,01
부산광역시 금정구 금사로 118 1층 (금사동),21808384,35.2227416,129.1137418,성경약국,01
부산광역시 기장군 기장읍 차성남로51번길 30 101층,21810362,35.2425414,129.2164911,메디팜대학약국,01
경기도 파주시 청석로 256 교하일번가빌딩 1층 108호 (동패동),41843100,37.724621,126.7176866,수약국,01
"대구광역시 수성구 동대구로55길 5-6, (범어동)",37835467,35.854548,128.6244296,석약국,01
"충청남도 당진시 송악읍 반촌로 98-1,",34842292,36.9042049,126.6945595,다정약국,01
부산광역시 북구 학사로 140 덕진 상뜨레-뷰 앙코르 (화명동),21837228,35.2349204,129.0085092,베스트 정약국,01
대구광역시 중구 동덕로 118 (삼덕동2가),37801066,35.8650716,128.6033223,구세약국,01
경북 김천시 봉산면 신리 479-7 479-7,5108204533,36.143096,128.0622045,직지농협하나로마트봉계점,03
경상북도 구미시 인동가산로 23 101호 (황상동),37815814,36.1068008,128.4195091,장생온누리약국,01
"울산광역시 남구 북부순환도로 23 1층 (무거동, 경민빌딩)",38827999,35.5520803,129.2663182,건강한약국,01
전북 김제시 진봉면 진봉로 488,4058300741,35.8577813,126.7677235,김제진봉우체국,02
서울특별시 관악구 법원단지길 20 (신림동),11811242,37.4740788,126.9188176,육당약국,01
부산광역시 금정구 부산대학로49번길 17 1층 (장전동),21814911,35.2304736,129.0858497,대학약국,01
경기도 이천시 영창로 200 (창전동),31884172,37.2809739,127.4446906,정원약국,01
울산광역시 동구 대학길 75 (화정동),38835274,35.4988376,129.4219143,명인약국,01
전라북도 무주군 안성면 안성로 297,35805811,35.8677402,127.6547581,안성약국,01
"경상남도 진주시 장대로 3-1, 623호 (장대동)",38830523,35.19195,128.088606,동산약국,01
서울특별시 광진구 동일로 262 (군자동),12858927,37.5547076,127.0713721,한길약국,01
서울특별시 도봉구 노해로69길 25 (창동),11884339,37.6536099,127.0504538,태평양약국,01
전라남도 담양군 담양읍 죽향대로 1201,36823601,35.3130062,126.9821475,태성약국,01
대구광역시 동구 율하동로 46 1층 (율하동),37833651,35.8635217,128.7014774,세종약국,01
울산광역시 남구 중앙로 164 (달동),38835614,35.5357129,129.3140965,안약사의안약국,01
"서울특별시 성북구 종암로 122 1층 (종암동, 시원빌딩)",12857220,37.6011698,127.0339268,참약사약국,01
강원도 춘천시 낙원길 41 (낙원동),32800754,37.8801714,127.7260904,은혜약국,01
"경기도 화성시 동탄대로시범길 134 판매시설 1128호,1129호 (청계동, 시범 반도유보라 아이비파크4.0)",41814983,37.1992157,127.1142338,가람약국,01
부산광역시 금정구 금강로415번길 2 1층 (구서동),21807868,35.2448031,129.0881868,건강약국,01
충청북도 청주시 상당구 월평로 182 (용암동),33803676,36.6100394,127.5043669,큰사랑약국,01
전라남도 완도군 금일읍 금일로 400,36817236,34.349104,127.0299737,금일건강약국,01
대전광역시 서구 월평중로 24 (월평동),34802789,36.356815,127.3641676,푸른솔약국,01
서울특별시 중구 세종대로 22 (남대문로5가),11833726,37.5585427,126.9743018,대우사약국,01
충청남도 공주시 공주대학로 96 (신관동),34806296,36.4735538,127.1378573,금강약국,01
서울특별시 영등포구 도영로 49 (도림동),11867701,37.5102639,126.8980809,정제약국,01
서울특별시 노원구 공릉로 138 준효약국 1층 (공릉동),11817267,37.6221926,127.0793745,준효약국,01
"전라북도 익산시 중앙로5길 19-1, (창인동1가)",35803941,35.9408395,126.9510423,민지약국,01
서울특별시 은평구 연서로 258 (불광동),12859818,37.619819,126.9233602,유정약국,01
"서울특별시 서초구 강남대로 439 1층 102호 (서초동, 유화빌딩)",12856754,37.5015461,127.0254021,아임약국,01
"부산광역시 수영구 광서로 5-3, (광안동)",21804311,35.1638908,129.113968,무지개약국,01
"서울특별시 서초구 신반포로23길 30 1층 (잠원동, 반원상가)",12806081,37.508788,127.0035627,서초21세기약국,01
전라북도 전주시 덕진구 안덕원로 261 (인후동1가),35800500,35.8369506,127.1555498,새평화약국,01
인천광역시 부평구 마장로 296 3층 (산곡동),31853897,37.5049829,126.7040723,희망약국,01
강원도 춘천시 효자로 57 (효자동),32806281,37.8691139,127.7298206,한결약국,01
경상북도 포항시 북구 흥해읍 한동로 36,37819739,36.1105908,129.3454193,신세계열린약국,01
"서울특별시 송파구 올림픽로 76 1층 104-1호 (잠실동, J타워)",11827815,37.5115631,127.0792026,다인약국,01
"부산광역시 동래구 충렬대로 384 (안락동, 동래아동병원)",21834504,35.197107,129.1002084,튼튼약국,01
"서울특별시 동대문구 천호대로 313 10호, 11호 (답십리동, 태영빌딩)",12836044,37.5654567,127.0553185,가까운약국,01
"대전광역시 유성구 반석동로 68, 102호 (반석동)",34837841,36.3931832,127.3114343,자연초한약국,01
충청남도 천안시 서북구 불당17길 27 (불당동),34820663,36.8097329,127.1108251,코끼리약국,01
인천 계양구 박촌동 101-4번지,1228203661,37.5538126,126.7448097,계양농협하나로마트,03
"인천광역시 계양구 장제로 728 101,102호 (작전동, 영프라자)",31855491,37.532815,126.7342694,열린대학약국,01
경기도 성남시 수정구 시민로205번길 32 1층 (태평동),41849311,37.4453595,127.1382224,가고싶은 후문약국,01
대전 서구 내동 26의51,3148202198,36.3330088,127.3734047,대전서부농협하나로마트내동점,03
서울특별시 동작구 여의대방로 22 104호 (신대방동),12853623,37.4920816,126.9115326,우성당약국,01
전남 고흥군 풍양면 풍양로 12,4138301663,34.5748076,127.2417754,고흥풍양우체국,02
인천 옹진군 영흥면 영흥로176번길 25,1218206928,37.2603802,126.4939511,인천옹진농협하나로마트영흥점,03
"경상남도 통영시 광도면 죽림1로 41-23, 101호 (한선파라디움)",38806517,34.8782767,128.416758,건강온누리약국,01
경기도 하남시 미사강변중앙로 226 우성르보아파크 1층 112호 (망월동),31845401,37.5667509,127.1889881,365약국,01
"경기도 성남시 분당구 내정로 172 1층 103호 (수내동, 상지상가빌딩)",31867481,37.3736466,127.1199656,다정약국,01
"서울특별시 강남구 강남대로 256 103호 (도곡동, 대우양재디오빌)",11802308,37.4864916,127.0335456,메디팜정연약국,01
경남 김해시 진례면 송현리 493의4,6228201877,35.246448,128.7686616,진례농협하나로마트동부점,03
인천광역시 남동구 용천로 140 1층 일부호 (간석동),31893147,37.462023,126.7146811,사랑온누리약국,01
"서울특별시 강서구 공항대로 308-7, 101호 (내발산동)",12868680,37.5577053,126.8421649,우장산이화약국,01
전라남도 무안군 삼향읍 남악3로 50 신우메디칼센터,36835544,34.8099707,126.4606714,신우그린약국,01
서울특별시 강동구 고덕로 353 고덕그라시움종합상가 3층 320호 (고덕동),12851159,37.5571351,127.1645103,그라시움이화약국,01
전라북도 남원시 춘향로 32 (도통동),35805242,35.4183723,127.397572,영진약국,01
경상남도 김해시 삼계중앙로 36 103호 (삼계동),38835771,35.2602669,128.8689797,튼튼온누리약국,01
경상북도 포항시 북구 중흥로 345 (죽도동),37844962,36.0326502,129.3654481,미래약국,01
부산광역시 부산진구 가야대로 779 (부전동),21841543,35.1579616,129.0568049,가까운약국,01
"경기도 화성시 동탄솔빛로 53 2층 205호 (반송동, 모닝타운)",41831276,37.1939143,127.0733164,모닝약국,01
"경기도 성남시 중원구 은이로5번길 1 1층 (은행동, 건영빌딩)",41835522,37.4579377,127.1648158,새코끼리약국,01
"서울특별시 강서구 양천로 731 104-1호 (염창동, 상가)",12809985,37.549794,126.8776792,염창메디칼약국,01
전남 순천시 별량면 별량길 85 순천농협파머스마켓 별량점,7818200162,34.8734583,127.4526553,순천농협파머스마켓별량점,03
강원도 원주시 남원로 671 (명륜동),32801289,37.3424591,127.9544838,김약국,01
"경기도 고양시 일산동구 중앙로 1059 102호 (백석동, ISD빌딩)",31855890,37.6439354,126.7861723,성심약국,01
대구광역시 남구 두류공원로 22 (대명동),37841149,35.8406654,128.5747841,대구약국,01
전라남도 순천시 망산1길 30 (가곡동),36833479,34.9747927,127.4834788,드림한약국,01
"서울특별시 영등포구 신풍로 93 메트하임 1층 114,116,117호 (신길동)",12833096,37.5002673,126.916644,보라매미소약국,01
경기도 오산시 대원로 1 (오산동),31821006,37.1466063,127.0686352,21세기 동규약국,01
"경기도 안양시 동안구 시민대로 311 314호 (관양동, 금강스마트빌딩)",41830733,37.3960855,126.9646697,평촌라임약국,01
경상북도 포항시 북구 중앙로 241 (죽도동),37842803,36.0343746,129.36524,새경북약국,01
경상북도 경산시 펜타힐즈2로 57 116호 (중산동),37851691,35.8287306,128.7197706,광장약국,01
"경상남도 창원시 마산회원구 3·15대로 778 (합성동, 정비인후과의원)",38803372,35.2407768,128.5847004,산호당약국,01
광주광역시 북구 호동로 65 (문흥동),36816400,35.1774924,126.9178758,사랑한약국,01
대전광역시 서구 둔산로 206 (둔산동),34802363,36.3510871,127.3967712,종로약국,01
울산광역시 울주군 온산읍 덕신로 217 105호,38840375,35.4342917,129.304933,재연약국,01
"경상남도 창원시 성산구 대정로 33 (가음동, 황금상가)",38804549,35.2075093,128.6982564,삼성약국,01
"경기도 군포시 번영로 515 112호 (산본동, 유화프라자빌딩)",41840623,37.3590834,126.933713,가까운약국,01
"서울특별시 강남구 도곡로 242 (도곡동, 도곡삼호상가 지하1층 103호 1층 201호)",11868104,37.4934007,127.0451556,도곡메디칼약국,01
전라남도 목포시 원산중앙로 96 (연산동),36807257,34.8119173,126.3812968,대인약국,01
"전라남도 영암군 금정면 용두로 11-1,",36819166,34.8624965,126.7489027,금정약국,01
"충북 청주시 서원구 분평로 26 (분평동,호인센트럴존스포츠센타)",3018523067,36.6082054,127.4880112,(주)충북유통분평점,03
경남 창원시 의창구 동읍 용잠로 21,6098200652,35.2793443,128.6866977,동읍농협하나로마트본점,03
경상북도 예천군 호명면 새움3로 20 신성프라자 1층,37837184,36.5762495,128.4890819,에덴약국,01
광주광역시 북구 첨단연신로 97 106.107호 (신용동),36831034,35.2065769,126.8640294,나래종로약국,01
부산광역시 금정구 금정로 244 1층 (구서동),21840776,35.2451279,129.0922156,더(The)튼튼약국,01
경상남도 진주시 진주대로 867 (주약동),38811448,35.1778506,128.091374,민들레약국,01
경북 청도군 각북면 남산리296,5158207914,35.6891347,128.5901755,서청도농협하나로마트각북점,03
인천광역시 동구 금곡로92번길 17 (송림동),31801099,37.4731512,126.6463556,인일약국,01
인천광역시 계양구 임학동로 47 대경빌딩 (임학동),31892043,37.5461342,126.7371264,새생명약국,01
"서울특별시 종로구 종로 33 지하1층 B104호 (청진동, 그랑서울)",12840165,37.5710023,126.981484,수약국,01
서울특별시 노원구 동일로 1673 (상계동),11851457,37.6778534,127.0549716,수락100세약국,01
"전라북도 전주시 완산구 호암로 29 101, 102호 (효자동2가)",35822333,35.8093877,127.0976267,미소진약국,01
경상남도 김해시 전하로304번길 24 (외동),38838401,,,정성약국,01
"대구광역시 북구 연암로 135-2, 1층 (산격동)",37836137,35.896802,128.5949569,참사랑약국,01
"경기도 고양시 일산동구 중앙로 1172 510호 (마두동, 그랜드프라자)",31855318,37.6517337,126.7784174,일산나을약국,01
강원도 원주시 원일로 109 (일산동),32814496,37.3496154,127.948626,만나약국,01
전라남도 순천시 조례못등길 16 금당빌딩 1층 (조례동),36834793,34.9542063,127.5263787,바른약국,01
부산광역시 동래구 동래로147번길 5 2층 (복천동),21841250,35.204666,129.0868617,한마음한약국,01
충청북도 청주시 청원구 오창읍 중부로 760 201동 106호 (오창 롯데캐슬 더 하이스트),33816671,36.7105539,127.436685,하임약국,01
경기도 안성시 공도읍 서동대로 3874,41819624,36.9934911,127.1376581,파란약국,01
경기도 성남시 중원구 둔촌대로 84 1층 111호 (성남동),31853285,37.4297249,127.1284766,모란시민약국,01
"서울특별시 종로구 창경궁로 160 1,2층 (원남동)",12854042,37.5767149,126.9975187,대학약국,01
대구광역시 수성구 범어로 180 (범어동),37829700,35.8652995,128.6348787,광림약국,01
"대전광역시 동구 대전로 832-2, 1층 (정동)",34840214,36.3338079,127.4317252,진약국,01
"서울특별시 구로구 디지털로 288 1층 104호 (구로동, 대륭포스트타워1차)",11891858,37.4837318,126.8953657,타워약국,01
충청북도 청주시 흥덕구 강내면 탑연월곡길 80,33802084,36.623811,127.3645075,신안온누리약국,01
"경기도 용인시 수지구 만현로 92 116호 (상현동, 아이티프라자)",31844081,37.3084934,127.0849385,현진약국,01
경기도 파주시 탄현면 사슴벌레로 28 (한사랑내과),41832086,37.7754251,126.7027127,한솔약국,01
"인천광역시 부평구 부영로189번길 51 (산곡동, 오남프라자 508호일부)",41821581,37.5021433,126.7129333,다정약국,01
"경기도 남양주시 금곡로 72 (금곡동, 센타프라자)",41838441,37.6345001,127.2111479,진서약국,01
광주광역시 남구 대남대로 338 (월산동),36827495,35.1419169,126.8935893,강남약국,01
경상북도 영주시 구성로 355 (영주동),37814630,36.8233713,128.6226512,보건약국,01
경상북도 구미시 인동20길 39 (진평동),37810090,36.0957017,128.4241674,사랑약국,01
전라북도 전주시 덕진구 송천중앙로 127 (송천동1가),35813253,35.8584446,127.120743,우리송천약국,01
울산광역시 울주군 온산읍 덕신로 262,38800110,35.4334824,129.3100627,큰사랑약국,01
경상북도 경주시 안강읍 안강중앙로 224 ,5058301870,35.9920013,129.2245375,경주안강우체국,02
"경기도 남양주시 평내로29번길 49 108호 (평내동, 엠투프라자)",41818971,37.6458624,127.2356564,평내약국,01
경기도 부천시 송내대로 239 소풍 2F51호 (상동),41811615,37.5041589,126.7567042,소풍약국,01
충청남도 논산시 생뫼길 16 (강산동),34830715,36.1875145,127.0904039,한마음약국,01
경상남도 거제시 옥수로10길 40 (능포동),38807408,34.8758442,128.7313193,옥수당약국,01
서울특별시 서초구 서초중앙로 229 1층 (반포동),12863424,37.5021206,127.0113916,라임약국,01
"경기도 양주시 평화로1435번길 5-3, (덕계동)",31864872,37.8192215,127.0457933,희망약국,01
"전라남도 광양시 광영로 141 (광영동, 현대a상가 201호)",36831654,34.9662391,127.7157123,새현대약국,01
"전라북도 익산시 익산대로 302-1, (남중동)",35821370,35.9527533,126.9523612,바른 한약국,01
전남 곡성군 석곡면 석곡리 224-5,4088207464,35.1317597,127.2534091,곡성축협하나로마트석곡점,03
광주광역시 서구 풍암순환로 183 2층 213호 (풍암동),36808351,35.1268362,126.8812499,정다운온누리약국,01
경기도 시흥시 인선길 36 (장곡동),31840256,37.3775093,126.7846926,한도온누리약국,01
"대구광역시 남구 명덕로 110-1, (대명동)",37822501,35.8563578,128.5821969,이백세약국,01
"서울특별시 강남구 강남대로 240 314호일부호 (도곡동, 양재SK허브프리모상가)",12853381,37.4852658,127.0344506,프리모약국,01
경상북도 안동시 남선면 충효로 3850 ,5088304712,36.5264804,128.7711546,안동남선우체국,02
"경상남도 김해시 장유로 230 201호 (부곡동, 프리마빌딩)",38823012,35.203688,128.809146,장유조은약국,01
"경기도 파주시 미래로 610 104호 (와동동, 운정메디컬프라자)",31804128,37.7316526,126.751447,드림약국,01
대구광역시 중구 경상감영길 48 (서문로1가),37830376,35.8712998,128.5900869,서문로약국,01
부산광역시 기장군 기장읍 차성동로 171,21816590,35.2532556,129.2170237,삼성약국,01
부산광역시 영도구 남항새싹길 13 (신선동3가),21822344,35.0847953,129.0429442,바다약국,01
전라북도 고창군 부안면 복분자로 903-1,4048300845,35.5134721,126.6741175,고창부안우체국,02
"대구광역시 중구 국채보상로 648 (동인동2가,호수빌딩 지하)",37843591,35.8694296,128.601194,대구우리안약국,01
전라북도 전주시 완산구 우전로 225 (효자동2가),35819090,35.814476,127.1014576,효자우리약국,01
충청북도 청주시 서원구 수영로 4 (수곡동),33815607,36.6148038,127.4864498,수곡제일약국,01
부산광역시 부산진구 전포대로209번길 45 1층 (전포동),21841322,35.1552849,129.0626479,청미래한약국,01
서울특별시 강남구 삼성로 233 (대치동),12805980,37.4980642,127.0609247,강남메디칼약국,01
제주특별자치도 제주시 수덕로 6 (노형동),39802370,33.4886284,126.4753683,하늘약국,01
전라북도 전주시 완산구 팔달로 103 (전동),35812214,35.8120444,127.1491504,동양당약국,01
"경기도 고양시 덕양구 백양로 79 (화정동, 이마트내 1층)",41832698,37.63265,126.8334541,드림팜 약국,01
"경기도 성남시 분당구 정자일로198번길 15 109호 (정자동, 제나프라자)",31877761,37.3676718,127.1076973,행복한온누리약국,01
부산광역시 동래구 여고로 6 (사직동),21830991,35.1946201,129.0646876,천사약국,01
전남 영광군 홍농읍 상하리 316,4108214070,35.3987597,126.4466257,굴비골농협하나로마트홍농점,03
대구광역시 북구 학정로 38 1층 (태전동),37805550,35.9132694,128.5468781,약손약국,01
전라남도 순천시 연향중앙상가길 29 1층 (연향동),36828068,34.9510509,127.5201407,하나로약국,01
"전라남도 무안군 일로읍 일로로 99-1,",36803588,34.8471733,126.4961089,일로건강약국,01
경기도 양주시 평화로 1435 (덕계동),41821114,37.8190409,127.0460107,덕계약국,01
전라남도 목포시 옥암로 129 (상동),36831719,34.8100242,126.4244207,지성약국,01
경북 경주시 산업로 3016 (시래동) 하나로마트,5058200312,35.775653,129.2999009,불국사농협하나로마트본점,03
부산광역시 부산진구 중앙대로 773 1층 (부전동),21842191,35.1612864,129.0615532,수약국,01
"경기도 부천시 부흥로 485 105호 (소사동, 뉴월드하이빌)",31879012,37.4848788,126.7923289,소사중앙약국,01
경기도 안양시 만안구 안양로 339 (안양동),41809696,37.4017609,126.9185728,오렌지약국,01
광주광역시 광산구 비아중앙로 33 (비아동),36816663,35.2219289,126.8246594,신비약국,01
"경기도 성남시 분당구 벌말로 10 1층 107호 (야탑동, 목련마을근린상가)",31822746,37.4085972,127.1402225,유정약국,01
서울특별시 영등포구 양평로 102 (양평동4가),12810436,37.5369644,126.8962721,새성심약국,01
강원도 속초시 중앙로 121 (금호동),32804288,38.20264,128.5893677,동제약국,01
경기도 안산시 단원구 광덕1로 62 아트프라자 1층 115호 (초지동),31862021,37.3081646,126.8163034,큰사랑약국,01
부산광역시 사하구 옥천로 73 1층 (감천동),21809348,35.0931302,129.0089991,삼거리약국,01
광주광역시 서구 화정로 109 1층 (쌍촌동),36803715,35.145279,126.8692846,남방약국,01
"서울특별시 은평구 은평로 193-2, (녹번동)",12843440,37.6021329,126.9289299,수약국,01
"부산광역시 영도구 태종로 382 102호 (청학동, 동구빌딩)",21806080,35.0928645,129.0652828,대성약국,01
충남 보령시 남포면 충서로1839-8,3138300781,36.3046071,126.6057043,남포우체국,02
경기도 성남시 분당구 성남대로 926 분당메트로 406호 (야탑동),41818211,37.4125779,127.129292,수호약국,01
"경남 김해시 장유로 287 (무계동,농협하나로마트)",6158205161,35.2004699,128.8136117,장유농협하나로마트,03
경남 고성군 동해면 외곡리 851-1,6128203975,35.0093654,128.3992586,고성동부농협하나로마트외곡점,03
광주광역시 광산구 사암로 273 1층 (월곡동),36813877,35.168779,126.8087745,광암약국,01
대구광역시 수성구 수성로 298 (수성동2가),37805690,35.8520051,128.6136737,성모약국,01
강원도 원주시 원일로 161 (일산동),32801378,37.3526162,127.9463633,한일약국,01
대구광역시 북구 호국로 215 대성골든프라자2차 202호 (서변동),37852264,35.9208337,128.598824,연약국,01
경남 밀양시 표충로 355,6158300426,35.5151928,128.8754604,밀양단장우체국,02
"대구광역시 서구 국채보상로 316 201동 104호 (평리동, 평리롯데캐슬상가)",37808940,35.8708173,128.5655069,온누리소화약국,01
대구광역시 달서구 와룡로41길 11 1층 (죽전동),37850661,35.8511735,128.5364557,행복한약국,01
"서울특별시 용산구 효창원로 142 (효창동, 중앙병원)",12856541,37.5404798,126.9620171,서안약국,01
경상북도 경주시 화랑로 145 (성동동),37812394,35.8445854,129.2167514,해동약국,01
서울특별시 노원구 동일로192길 20 1층 (공릉동),11871041,37.6259269,127.0742699,보윤약국,01
충남 천안시 동남구 청당동 511,3128218184,36.7825678,127.1535867,천안축협 하나로마트,03
제주특별자치도 제주시 서광로 273 (이도일동),39802507,33.5004149,126.5256548,고운약국,01
서울특별시 은평구 통일로 855-8 ,12868434,37.6191391,126.92021,타운약국,01
경상북도 구미시 인동가산로 11 (황상동),37817370,36.1076957,128.418683,승현약국,01
"경기도 시흥시 정왕대로 56 109호 (정왕동, 세종월드빌딩)",31842372,37.3545465,126.7230275,시화연합약국,01
"충북 청주시 흥덕구 내곡로 21 (내곡동,서청주농협) 서청주농협내곡지점",3158202100,36.6611786,127.4276153,서청주농협하나로마트내곡점,03
부산광역시 부산진구 중앙대로 686 (부전동),21831700,35.1539324,129.0595871,스마일약국,01
부산광역시 북구 금곡대로 469 (금곡동),21836051,35.2500138,129.0111798,하나로약국,01
서울특별시 은평구 은평로 5 1층 (신사동),11889489,37.5967735,126.9092234,새봄약국,01
경기도 구리시 경춘로 224 (수택동),31864210,37.6004124,127.1403207,종근당약국,01
"경기도 성남시 중원구 둔촌대로 381 1층 (상대원동, 대성빌딩)",31881696,37.4336536,127.1590043,임약국,01
"서울특별시 성동구 광나루로11길 26-1, (송정동)",11862017,37.5501318,127.0670634,신라약국,01
서울특별시 마포구 마포대로24길 4 공덕자이아파트 상가 상가1동 105호 (아현동),12823040,37.5541537,126.9578938,한마음약국,01
경기도 성남시 분당구 성남대로779번길 50 1층 (이매동),41802985,37.3994728,127.1230419,미래약국,01
인천광역시 미추홀구 인하로 276 (주안동),31833608,37.4478746,126.6787405,참사랑약국,01
경상북도 영주시 순흥면 순흥로 59,37837605,36.9149171,128.575746,고려약국,01
"부산광역시 금정구 서동로 75-2, 1층 (서동)",21808481,35.2176055,129.0957289,하약국,01
경상북도 포항시 남구 상공로 51 삼상빌딩 (상도동),37851489,36.0131372,129.3567941,대해약국,01
"서울특별시 마포구 독막로 10 3층 (합정동, 성지빌딩)",12827266,37.5484962,126.9144925,사랑의약국,01
"경기도 성남시 분당구 성남대로331번길 3 1층 116호 (정자동, 젤존타워3)",41806344,37.3653352,127.1077176,정자우리들약국,01
제주특별자치도 제주시 서광로 297 1층 (이도일동),39805794,33.5007379,126.5282022,365건강온누리약국,01
"전라북도 전주시 완산구 서신로 105 (서신동,2층)",35817925,35.8348275,127.1156212,파랑약국,01
대구광역시 달서구 조암로 48 1층 (월성동),37842323,35.8243697,128.5243231,원더풀약국,01
강원도 인제군 상남면 내린천로2560,2238303277,37.8720022,128.2599587,상남우체국,02
"경기도 수원시 권선구 세화로 134 2층 (서둔동, 롯데몰)",41836049,37.2642663,126.997239,소나무약국,01
대전광역시 서구 갈마로 251 한민쇼핑 1층 (괴정동),34811311,36.3337653,127.38198,정성약국,01
"제주특별자치도 제주시 성신로 13-4, (연동)",39802914,33.4909674,126.4851877,한라산약국,01
부산광역시 부산진구 당감로,21839221,,,자연담은부부한약국,01
서울특별시 강남구 논현로86길 22 1층 (역삼동),12817180,37.5000425,127.0393589,강남미소약국,01
충남 보령시 오천면 원산도3길 398,3138300985,36.3822931,126.4329276,원산도우체국,02
서울특별시 동작구 동작대로29길 17 (사당동),12818291,37.4879691,126.9809385,시장약국,01
춘천시 신동면 김유정로 1424,2218303719,37.8182417,127.7161961,김유정우체국,02
전라북도 군산시 공단대로 383 행복한약국 (나운동),35818981,35.9618305,126.6997521,365일행복한약국,01
서울특별시 은평구 은평로 226 (응암동),11876280,37.6008528,126.9327356,신명약국,01
경상북도 성주군 성주읍 성주로 3203,37807587,35.9189558,128.2846738,우리약국,01
충청남도 서산시 성연면 성연로 210-10 ,3108305531,36.8374594,126.462211,성연우체국,02
경기도 수원시 장안구 조원로 70 (조원동),31872166,37.2996643,127.0175233,조원약국,01
인천광역시 미추홀구 한나루로 411 (학익동),31802052,37.4443962,126.6650469,부영약국,01
"부산광역시 남구 수영로 203 1층 (대연동, 대연 메디칼센터)",21836876,35.135205,129.0889185,웰빙약국,01
"광주광역시 북구 밤실로 192-6, (두암동)",36835994,35.1643491,126.9340649,밤실약국,01
서울특별시 관악구 남부순환로 1443 (신림동),11811773,37.4814335,126.9111252,행복이가득한약국,01
전라남도 곡성군 석곡면 석곡로 53,36825743,35.1318436,127.2534341,심약국,01
대구광역시 동구 팔공로 1017 (백안동),5028303321,35.9543818,128.6898203,대구공산우체국,02
전라북도 전주시 완산구 당산로 98 (서신동),35818204,35.8319823,127.1192555,서신종로약국,01
전라북도 익산시 서동로 89 (마동),35811366,35.9337455,126.9613271,광제약국,01
부산광역시 사하구 낙동대로 448 (당리동),21810702,35.10523,128.9697917,삼성온누리약국,01
충남 공주시 탄천면 통산로 171,3078300224,36.3305167,127.0295375,탄천우체국,02
전라북도 부안군 부안읍 석정로 230,35806788,35.725185,126.7370093,더조은약국,01
강원도 춘천시 중앙로 88 (중앙로2가),32800606,37.878158,127.7246831,무지개약국,01
"경기도 용인시 기흥구 동백죽전대로 333 B4동 4111,4112호 (중동, 스프링카운티자이)",41850181,37.2693385,127.1506986,동백대학온누리약국,01
충청북도 단양군 단양읍 도전2로 4,33804567,36.9832822,128.3695226,여명약국,01
"경기도 이천시 영창로 108 1층 101-103호 (관고동, 이천 벽산블루밍아파트)",41845188,37.2828753,127.4351431,가까운대학약국,01
경기도 김포시 김포대로 855 네오프라자 메디칼센타 1층 101호 (사우동),41844068,37.6202419,126.7186794,큰사랑온누리약국,01
충청남도 서천군 장항읍 장서로 30,34828338,36.0105112,126.6984362,장항종로약국,01
경남 의령군 칠곡면 신포리439-1,6088205635,35.3409633,128.1928131,의령농협하나로마트칠곡점,03
"경기도 성남시 분당구 돌마로486번길 40 1층 101,102호 (서현동, 한라쇼핑상가동)",41813511,37.3748151,127.136537,건강드림서당약국,01
"부산광역시 남구 용호로 189-2, (용호동)",21802131,35.1153277,129.1112166,대지약국,01
경기도 용인시 처인구 포곡읍 포곡로 72 108호 (대두빌딩),31831150,37.2675914,127.2140848,용인윤약국,01
전라북도 전주시 완산구 당산로 110 (서신동),35818255,35.8319903,127.1203618,애플약국,01
"서울특별시 영등포구 당산로 222 (당산동5가,당산디오빌 206호)",12804584,37.5333453,126.9025476,디오빌약국,01
부산광역시 동래구 석사로 5 1층 일부호 (사직동),21823685,35.1980653,129.0606757,햇살약국,01
